index,mapc_id,parloc_id,luc_adj_1,luc_adj_2,muni_id,muni,District,land_value,bldg_value,othr_value,total_value,lot_areaft,bldg_area,addr_num,addr_str,owner_city,owner_stat,owner_zip,median_hh_income,latitude,longitude,numTransitStops,walkscore,transitscore,transit_score_description,transit_score_summary,transitStopScore,TransitFriendlyScore
9137,1389640,M_246786_956533,972,972,7,Amesbury,1st Essex District,227000.0,1057000.0,0.0,1284000,76659.08047999999,11600,68,ELM ST,HAVERHILL,MA,1830,70063.0,42.85800379,-70.92755661,16.0,71.0,25.0,Some Transit,"3 nearby routes: 3 bus, 0 rail, 0 other",88.88888888888889,48.0
6837,1064452,F_751955_3065768,972,972,9,Andover,17th Essex District,35300.0,0.0,0.0,35300,124394.7851,0,0,RAILROAD ST,BOSTON,MA,2116,81644.0,42.66006423,-71.14389721,,84.0,31.0,Some Transit,"4 nearby routes: 3 bus, 1 rail, 0 other",,57.5
6827,1063352,F_751647_3065350,972,972,9,Andover,17th Essex District,20200.0,0.0,35200.0,55400,57095.134829999995,0,0,RAILROAD ST,BOSTON,MA,2116,81644.0,42.65892084,-71.14504868,,81.0,31.0,Some Transit,"4 nearby routes: 3 bus, 1 rail, 0 other",,56.0
6813,1061644,F_746653_3049859,972,972,9,Andover,,700.0,0.0,0.0,700,500143.9046,0,0,LOWELL JUNCTION RD,BOSTON,MA,2116,,,,,54.66350710900474,40.28776978417266,,,,47.475638446588704
6845,1065967,F_751349_3063765,972,972,9,Andover,18th Essex District,0.0,0.0,0.0,0,146450.6964,0,0,ESSEX ST,BOSTON,MA,2116,81644.0,42.65457529,-71.14618094,,63.0,31.0,Some Transit,"4 nearby routes: 3 bus, 1 rail, 0 other",,47.0
6871,1072227,F_752376_3067911,972,972,9,Andover,17th Essex District,0.0,0.0,0.0,0,210543.89800000002,0,0,HARDING ST,BOSTON,MA,2116,121182.0,42.66593937,-71.14229871,19.0,58.0,27.0,Some Transit,"5 nearby routes: 5 bus, 0 rail, 0 other",105.55555555555556,42.5
6867,1071484,F_750295_3073434,972,972,9,Andover,17th Essex District,36400.0,0.0,0.0,36400,20187.77767,0,0,SHEPLEY ST,BOSTON,MA,2116,121182.0,42.68111704,-71.1499514,12.0,41.0,33.0,Some Transit,"10 nearby routes: 10 bus, 0 rail, 0 other",66.66666666666666,37.0
6829,1063574,F_752181_3069893,972,972,9,Andover,17th Essex District,0.0,0.0,0.0,0,165965.064,0,0,HAVERHILL ST,BOSTON,MA,2116,121182.0,42.67137982,-71.14299285,,43.0,30.0,Some Transit,"7 nearby routes: 7 bus, 0 rail, 0 other",,36.5
6814,1061941,F_751645_3071198,972,972,9,Andover,17th Essex District,143200.0,0.0,0.0,143200,83410.10278,0,0,HAVERHILL ST,BOSTON,MA,2116,121182.0,42.67496661,-71.14496563,17.0,36.0,30.0,Some Transit,"7 nearby routes: 7 bus, 0 rail, 0 other",94.44444444444444,33.0
6834,1063995,F_750476_3062073,972,972,9,Andover,18th Essex District,0.0,0.0,0.0,0,173209.1881,0,0,LUPINE RD,BOSTON,MA,2116,,42.64994265,-71.14945193,3.0,33.0,27.0,Some Transit,"4 nearby routes: 3 bus, 1 rail, 0 other",16.666666666666664,30.0
6816,1062375,F_747733_3053990,972,972,9,Andover,18th Essex District,140300.0,0.0,12500.0,152800,46713.28597,0,190,ANDOVER ST,BOSTON,MA,2116,171955.0,42.62779477,-71.1597674,2.0,32.0,27.0,Some Transit,"2 nearby routes: 1 bus, 1 rail, 0 other",11.11111111111111,29.5
6872,1072251,F_747872_3052573,972,972,9,Andover,18th Essex District,41600.0,0.0,0.0,41600,211884.0822,0,197,ANDOVER ST,BOSTON,MA,2116,171955.0,42.62390522,-71.15927196,1.0,30.0,27.0,Some Transit,"2 nearby routes: 1 bus, 1 rail, 0 other",5.555555555555555,28.5
6815,1061942,F_751545_3071516,972,972,9,Andover,17th Essex District,122600.0,0.0,0.0,122600,13811.71125,0,0,HAVERHILL ST,BOSTON,MA,2116,121182.0,42.67584028,-71.14533255,17.0,24.0,32.0,Some Transit,"8 nearby routes: 8 bus, 0 rail, 0 other",94.44444444444444,28.0
6840,1064918,F_749577_3060360,972,972,9,Andover,18th Essex District,0.0,0.0,0.0,0,146336.6517,0,0,ANDOVER ST,BOSTON,MA,2116,,42.64525257,-71.1528194,,24.0,17.0,Minimal Transit,"3 nearby routes: 3 bus, 0 rail, 0 other",,20.5
6839,1064793,F_750964_3072337,972,972,9,Andover,17th Essex District,0.0,0.0,0.0,0,161465.7813,0,0,HAVERHILL ST,BOSTON,MA,2116,121182.0,42.67809954,-71.14748038,13.0,9.0,31.0,Some Transit,"10 nearby routes: 10 bus, 0 rail, 0 other",72.22222222222221,20.0
6855,1068246,F_747595_3054616,972,972,9,Andover,18th Essex District,0.0,0.0,0.0,0,141282.65099999998,0,0,ANDOVER ST,BOSTON,MA,2116,171955.0,42.62951392,-71.1602709,2.0,12.0,28.0,Some Transit,"2 nearby routes: 1 bus, 1 rail, 0 other",11.11111111111111,20.0
6843,1065445,F_747923_3057154,972,972,9,Andover,18th Essex District,0.0,0.0,0.0,0,194055.4376,0,0,ANDOVER ST,BOSTON,MA,2116,171955.0,42.63647417,-71.15901443,1.0,12.0,24.0,Minimal Transit,"2 nearby routes: 1 bus, 1 rail, 0 other",5.555555555555555,18.0
6842,1065104,F_748694_3058706,972,972,9,Andover,18th Essex District,0.0,0.0,0.0,0,105719.9015,0,0,ANDOVER ST,BOSTON,MA,2116,171955.0,42.64072410000001,-71.15612601,,19.0,14.0,Minimal Transit,"2 nearby routes: 1 bus, 1 rail, 0 other",,16.5
6812,1061475,F_746413_3044459,972,972,9,Andover,18th Essex District,0.0,0.0,0.0,0,204677.8886,0,0,LOWELL JUNCTION RD,BOSTON,MA,2116,181130.0,42.60165748,-71.16481124,,20.0,0.0,No Nearby Transit,"0 nearby routes: 0 bus, 0 rail, 0 other",,10.0
6847,1066257,F_757322_3049391,972,972,9,Andover,18th Essex District,400.0,0.0,0.0,400,1093.9817,0,451,SOUTH MAIN ST,BOSTON,MA,2116,181130.0,42.61506541,-71.12421332,1.0,13.0,0.0,No Nearby Transit,"1 nearby routes: 1 bus, 0 rail, 0 other",5.555555555555555,6.5
6854,1068182,F_747800_3051020,972,972,9,Andover,18th Essex District,36800.0,0.0,0.0,36800,570337.1803,0,0,TEWKSBURY ST,BOSTON,MA,2116,,42.61964483,-71.1595625,,11.0,0.0,No Nearby Transit,"0 nearby routes: 0 bus, 0 rail, 0 other",,5.5
6848,1066464,F_744166_3050646,972,972,9,Andover,18th Essex District,0.0,0.0,0.0,0,169960.5183,0,0,TEWKSBURY ST,BOSTON,MA,2116,171955.0,42.61865763,-71.17306878,,10.0,0.0,No Nearby Transit,"0 nearby routes: 0 bus, 0 rail, 0 other",,5.0
6860,1069246,F_746887_3050262,972,972,9,Andover,18th Essex District,44100.0,0.0,0.0,44100,137732.4178,0,0,LOWELL JUNCTION RD,BOSTON,MA,2116,181130.0,42.61757494,-71.16296558,,5.0,0.0,No Nearby Transit,"0 nearby routes: 0 bus, 0 rail, 0 other",,2.5
6826,1063198,F_746853_3047827,972,972,9,Andover,18th Essex District,0.0,0.0,0.0,0,160338.9591,0,0,LOWELL JUNCTION RD,BOSTON,MA,2116,181130.0,42.61089403,-71.16312762,,3.0,0.0,No Nearby Transit,"0 nearby routes: 0 bus, 0 rail, 0 other",,1.5
6863,1070115,F_746644_3046363,972,972,9,Andover,18th Essex District,0.0,0.0,0.0,0,178175.8336,0,0,LOWELL JUNCTION RD,BOSTON,MA,2116,181130.0,42.606879299999996,-71.16392541,,1.0,0.0,No Nearby Transit,"0 nearby routes: 0 bus, 0 rail, 0 other",,0.5
130,13934,M_140129_927140,972,972,15,Athol,2nd Franklin District,26600.0,191100.0,9800.0,227500,34941.51825,11177,573,SOUTH ST,FITCHBURG,MA,1420,54625.0,42.5925209,-72.2294605,8.0,62.0,21.0,Minimal Transit,"4 nearby routes: 4 bus, 0 rail, 0 other",44.44444444444444,41.5
2857,410781,M_218062_854927,972,972,16,Attleboro,2nd Bristol District,2200.0,0.0,0.0,2200,270.5855563,0,49,PARK ST,TAUNTON,MA,2780,42557.0,41.9444912,-71.28217696,12.0,86.0,40.28776978417266,,,66.66666666666666,63.143884892086334
2900,418874,M_217950_854668,972,972,16,Attleboro,2nd Bristol District,1012500.0,226400.0,38400.0,1277300,58037.66214,6968,0,MILL ST,BOSTON,MA,2116,42557.0,41.9421619,-71.28353557,15.0,84.0,39.0,Some Transit,"8 nearby routes: 7 bus, 1 rail, 0 other",83.33333333333334,61.5
2858,410782,M_218210_855217,972,972,16,Attleboro,14th Bristol District,80800.0,13200.0,300.0,94300,21505.01534,1216,0,PLEASANT ST,BOSTON,MA,2116,42557.0,41.94709875,-71.28038312,14.0,83.0,36.0,Some Transit,"8 nearby routes: 7 bus, 1 rail, 0 other",77.77777777777779,59.5
2901,418998,M_218217_855281,972,972,16,Attleboro,14th Bristol District,9700.0,0.0,0.0,9700,8968.82058,0,0,PECK ST REAR,BOSTON,MA,2116,,41.947674799999994,-71.28029671,15.0,83.0,36.0,Some Transit,"8 nearby routes: 7 bus, 1 rail, 0 other",83.33333333333334,59.5
2902,419076,M_218346_855171,972,972,16,Attleboro,2nd Bristol District,101400.0,0.0,0.0,101400,28790.07403,0,0,PLEASANT ST REAR,BOSTON,MA,2116,42557.0,41.94668143,-71.27874438,15.0,82.0,36.0,Some Transit,"8 nearby routes: 7 bus, 1 rail, 0 other",83.33333333333334,59.0
2855,410619,M_218179_855220,972,972,16,Attleboro,14th Bristol District,0.0,0.0,0.0,0,4469.547805,0,0,BRANCH ST,BOSTON,MA,2116,42557.0,41.94712648,-71.2807569,14.0,81.0,36.0,Some Transit,"8 nearby routes: 7 bus, 1 rail, 0 other",77.77777777777779,58.5
2864,411287,M_217717_854268,972,972,16,Attleboro,2nd Bristol District,14000.0,0.0,0.0,14000,43934.97093,0,0,SO MAIN ST,BOSTON,MA,2116,55947.0,41.93856584,-71.28635746,14.0,74.0,39.0,Some Transit,"8 nearby routes: 7 bus, 1 rail, 0 other",77.77777777777779,56.5
2865,411288,M_217738_854440,972,972,16,Attleboro,2nd Bristol District,1955600.0,0.0,300000.0,2255600,310864.8554,0,0,SO MAIN ST,BOSTON,MA,2116,72949.0,41.94011395,-71.28609903,15.0,74.0,39.0,Some Transit,"8 nearby routes: 7 bus, 1 rail, 0 other",83.33333333333334,56.5
2859,410784,M_218288_855366,972,972,16,Attleboro,14th Bristol District,148800.0,0.0,0.0,148800,2075.839903,0,0,PLEASANT ST,BOSTON,MA,2116,100882.0,41.94843844,-71.27943778,13.0,78.0,34.0,Some Transit,"8 nearby routes: 7 bus, 1 rail, 0 other",72.22222222222221,56.0
2866,411290,M_217601_854150,972,972,16,Attleboro,2nd Bristol District,174300.0,0.0,0.0,174300,139403.9391,0,0,OLIVE ST,BOSTON,MA,2116,72949.0,41.93750605,-71.28775979,8.0,71.0,38.0,Some Transit,"8 nearby routes: 7 bus, 1 rail, 0 other",44.44444444444444,54.5
2871,411480,M_217515_853870,972,972,16,Attleboro,2nd Bristol District,0.0,0.0,0.0,0,43053.9304,0,0,OLIVE ST,BOSTON,MA,2116,,41.93498703,-71.28880517,6.0,67.0,36.0,Some Transit,"8 nearby routes: 7 bus, 1 rail, 0 other",33.33333333333333,51.5
2850,409567,M_211611_849648,972,972,16,Attleboro,2nd Bristol District,10700.0,0.0,0.0,10700,54027.91704,0,0,NEWPORT AVE,BOSTON,MA,2116,58990.0,41.89708414,-71.36007861,20.0,58.0,40.0,Some Transit,"7 nearby routes: 6 bus, 1 rail, 0 other",111.11111111111111,49.0
2898,418578,M_217367_853663,972,972,16,Attleboro,2nd Bristol District,143200.0,0.0,0.0,143200,80113.41695,0,0,THACHER ST,BOSTON,MA,2116,72949.0,41.93312662,-71.29059587,5.0,56.0,34.0,Some Transit,"9 nearby routes: 8 bus, 1 rail, 0 other",27.77777777777778,45.0
2894,417505,M_212741_849862,972,972,16,Attleboro,2nd Bristol District,63000.0,0.0,0.0,63000,44118.08172,0,0,COUNTY ST,PHILADELPHIA,PA,19104,58990.0,41.89899337,-71.34645663,6.0,35.0,40.28776978417266,,,33.33333333333333,37.643884892086334
2846,405542,M_210326_849334,972,972,16,Attleboro,,44900.0,0.0,0.0,44900,6978.070777,0,,MANN ST,BOSTON,MA,2116,,41.894275,-71.37556933,13.0,38.0,34.0,Some Transit,"6 nearby routes: 6 bus, 0 rail, 0 other",72.22222222222221,36.0
2878,413344,M_218576_855971,972,972,16,Attleboro,14th Bristol District,10700.0,0.0,0.0,10700,21875.77626,0,,HOLDEN ST,BOSTON,MA,2116,96708.0,41.95387871,-71.27594521,7.0,52.0,18.0,Minimal Transit,"2 nearby routes: 2 bus, 0 rail, 0 other",38.88888888888889,35.0
2879,413345,M_218512_855781,972,972,16,Attleboro,14th Bristol District,44400.0,0.0,0.0,44400,9134.347564,0,,STARKEY AVE,BOSTON,MA,2116,100882.0,41.95216958,-71.27672314,7.0,52.0,18.0,Minimal Transit,"2 nearby routes: 2 bus, 0 rail, 0 other",38.88888888888889,35.0
2903,419215,M_218601_855949,972,972,16,Attleboro,14th Bristol District,3800.0,0.0,0.0,3800,13289.448629999999,0,,STARKEY AVE,BOSTON,MA,2116,100882.0,41.95368004,-71.27564437,7.0,52.0,18.0,Minimal Transit,"2 nearby routes: 2 bus, 0 rail, 0 other",38.88888888888889,35.0
2852,409832,M_215071_850491,972,972,16,Attleboro,2nd Bristol District,109300.0,0.0,0.0,109300,36797.735539999994,0,0,SO MAIN ST,BOSTON,MA,2116,81029.0,41.90461529,-71.31836145,2.0,32.0,18.0,Minimal Transit,"1 nearby routes: 1 bus, 0 rail, 0 other",11.11111111111111,25.0
2880,413346,M_218691_856112,972,972,16,Attleboro,14th Bristol District,8900.0,0.0,0.0,8900,6098.878934,0,,PLEASANT ST,BOSTON,MA,2116,100882.0,41.95514545,-71.27455365,6.0,27.0,18.0,Minimal Transit,"2 nearby routes: 2 bus, 0 rail, 0 other",33.33333333333333,22.5
2872,411549,M_217095_853028,972,972,16,Attleboro,2nd Bristol District,196800.0,0.0,0.0,196800,556734.4012,0,0,THACHER ST,BOSTON,MA,2116,81029.0,41.92741545,-71.29389402,1.0,22.0,22.0,Minimal Transit,"3 nearby routes: 3 bus, 0 rail, 0 other",5.555555555555555,22.0
2873,411611,M_216891_852755,972,972,16,Attleboro,2nd Bristol District,99600.0,0.0,0.0,99600,34491.28544,0,0,SO MAIN ST,BOSTON,MA,2116,72949.0,41.92496194,-71.29636140000001,2.0,6.0,22.0,Minimal Transit,"3 nearby routes: 3 bus, 0 rail, 0 other",11.11111111111111,14.0
2874,411612,M_216651_852299,972,972,16,Attleboro,2nd Bristol District,100.0,0.0,0.0,100,44137.45684,0,0,SO MAIN ST,BOSTON,MA,2116,,41.92086152,-71.29926777,2.0,9.0,19.0,Minimal Transit,"3 nearby routes: 3 bus, 0 rail, 0 other",11.11111111111111,14.0
2875,411613,M_216782_852569,972,972,16,Attleboro,2nd Bristol District,100.0,0.0,0.0,100,54017.711079999994,0,0,SO MAIN ST,BOSTON,MA,2116,72949.0,41.92328965,-71.29768082,2.0,6.0,21.0,Minimal Transit,"3 nearby routes: 3 bus, 0 rail, 0 other",11.11111111111111,13.5
2851,409705,M_221643_855155,972,972,16,Attleboro,,68100.0,0.0,0.0,68100,319442.761,0,0,PIKE AVE REAR,BOSTON,MA,2116,,41.94645346,-71.23898286,1.0,10.0,16.0,Minimal Transit,"1 nearby routes: 1 bus, 0 rail, 0 other",5.555555555555555,13.0
2891,416250,M_216252_851473,972,972,16,Attleboro,2nd Bristol District,10700.0,0.0,0.0,10700,28377.00471,0,0,THURBER AVE,BOSTON,MA,2116,81029.0,41.91343308,-71.30410068,,10.0,16.0,Minimal Transit,"1 nearby routes: 1 bus, 0 rail, 0 other",,13.0
2893,416254,M_215701_850426,972,972,16,Attleboro,2nd Bristol District,106500.0,0.0,0.0,106500,15119.90155,0,0,SO MAIN ST,BOSTON,MA,2116,81029.0,41.90401773,-71.31077033,,10.0,16.0,Minimal Transit,"1 nearby routes: 1 bus, 0 rail, 0 other",,13.0
2892,416251,M_216419_851795,972,972,16,Attleboro,2nd Bristol District,9400.0,0.0,0.0,9400,13612.050119999998,0,0,SO MAIN ST,BOSTON,MA,2116,81029.0,41.9163287,-71.30207868,2.0,4.0,17.0,Minimal Transit,"1 nearby routes: 1 bus, 0 rail, 0 other",11.11111111111111,10.5
2870,411444,M_215744_850657,972,972,16,Attleboro,2nd Bristol District,220600.0,0.0,109200.0,329800,197814.7539,0,0,THURBER AVE,BOSTON,MA,2116,81029.0,41.90609666,-71.3102459,,1.0,15.0,Minimal Transit,"1 nearby routes: 1 bus, 0 rail, 0 other",,8.0
2906,419552,M_219717_858316,972,972,16,Attleboro,14th Bristol District,136000.0,0.0,0.0,136000,674081.9555,0,,LINDSEY ST,BOSTON,MA,2116,96708.0,41.9749637,-71.2621042,,0.0,0.0,No Nearby Transit,"0 nearby routes: 0 bus, 0 rail, 0 other",,0.0
8403,1241010,F_990309_2700345,972,972,20,Barnstable,2nd Barnstable District,776100.0,1166500.0,818700.0,2761300,200951.6412,9027,71,SOUTH STREET,WOODS HOLE,MA,2543,,41.65127427,-70.27734321,14.0,80.0,40.28776978417266,,,77.77777777777779,60.143884892086334
8411,1241147,F_990026_2702434,972,972,20,Barnstable,2nd Barnstable District,356200.0,127900.0,359300.0,843400,119234.8296,60,75,YARMOUTH ROAD,WOODS HOLE,MA,2543,,41.6570176,-70.27826911,10.0,80.0,40.28776978417266,,,55.55555555555556,60.143884892086334
8412,1241199,F_990694_2701306,972,972,20,Barnstable,2nd Barnstable District,151000.0,5900.0,222100.0,379000,89771.01265,60,61,LEWIS BAY ROAD,WOODS HOLE,MA,2543,,41.65389609,-70.27588419,12.0,77.0,40.28776978417266,,,66.66666666666666,58.643884892086334
8404,1241015,F_990481_2700515,972,972,20,Barnstable,2nd Barnstable District,159700.0,76300.0,11900.0,247900,4412.481531,2338,123,SCHOOL STREET,WOODS HOLE,MA,2543,,41.65173398,-70.27670501,14.0,74.0,40.28776978417266,,,77.77777777777779,57.143884892086334
268,29044,M_65372_893271,972,972,22,Becket,4th Berkshire District,26000.0,315900.0,315900.0,341900,131982.3654,0,61,TOWER ROAD,BOSTON,MA,2202,75852.0,42.27831937,-73.13223304,,54.66350710900474,0.0,No Nearby Transit,"0 nearby routes: 0 bus, 0 rail, 0 other",,27.33175355450237
5010,826579,F_715826_3002117,972,972,23,Bedford,21st Middlesex District,20400.0,0.0,0.0,20400,21835.5193,0,121,SOUTH ROAD,NORTH BILLERICA,MA,1862,134602.0,42.48574847,-71.27882321,17.0,57.0,40.28776978417266,,,94.44444444444444,48.643884892086334
6877,1075571,F_739726_2966365,972,972,26,Belmont,24th Middlesex District,64000.0,0.0,0.0,64000,9308.548749,0,520,TRAPELO RD,BOSTON,MA,2110,73005.0,42.38744137,-71.19069934,,82.0,43.0,Some Transit,"5 nearby routes: 4 bus, 1 rail, 0 other",,62.5
6878,1076183,F_740295_2966856,972,972,26,Belmont,24th Middlesex District,116000.0,0.0,0.0,116000,21328.20863,0,1020R,PLEASANT ST,BOSTON,MA,2110,73005.0,42.388783000000004,-71.18858653,16.0,80.0,43.0,Some Transit,"5 nearby routes: 4 bus, 1 rail, 0 other",88.88888888888889,61.5
6875,1075449,F_739167_2966119,972,972,26,Belmont,24th Middlesex District,96000.0,0.0,0.0,96000,24094.99354,0,17,LEXINGTON ST,BOSTON,MA,2110,73005.0,42.38677189,-71.19277178,,76.0,42.0,Some Transit,"3 nearby routes: 2 bus, 1 rail, 0 other",,59.0
6876,1075505,F_739239_2966210,972,972,26,Belmont,24th Middlesex District,96000.0,0.0,0.0,96000,10009.17645,0,15,LEXINGTON ST,BOSTON,MA,2110,73005.0,42.38702088,-71.19250406,,76.0,42.0,Some Transit,"3 nearby routes: 2 bus, 1 rail, 0 other",,59.0
6937,1077257,F_742671_2969080,972,972,26,Belmont,24th Middlesex District,103000.0,0.0,0.0,103000,6096.335504,0,726,PLEASANT ST,BOSTON,MA,2110,151484.0,42.39486155,-71.17976059,11.0,70.0,43.0,Some Transit,"6 nearby routes: 5 bus, 1 rail, 0 other",61.111111111111114,56.5
6887,1076688,F_741007_2967382,972,972,26,Belmont,24th Middlesex District,121000.0,0.0,0.0,121000,37154.1323,0,936R,PLEASANT ST,BOSTON,MA,2110,73005.0,42.39021919,-71.18594381,15.0,67.0,44.0,Some Transit,"5 nearby routes: 4 bus, 1 rail, 0 other",83.33333333333334,55.5
6945,1077330,F_748572_2969552,972,972,26,Belmont,24th Middlesex District,106000.0,0.0,0.0,106000,32655.75799,0,37,BRIGHTON ST,BOSTON,MA,2110,,42.39609386,-71.15790828,,70.0,40.0,Some Transit,"6 nearby routes: 5 bus, 1 rail, 0 other",,55.0
6942,1077311,F_745535_2969453,972,972,26,Belmont,24th Middlesex District,148000.0,0.0,0.0,148000,43476.09743,0,167,ALEXANDER AVE,BOSTON,MA,2110,174514.0,42.39585507,-71.16915279999999,,66.0,41.0,Some Transit,"6 nearby routes: 5 bus, 1 rail, 0 other",,53.5
6941,1077303,F_742902_2969241,972,972,26,Belmont,24th Middlesex District,141000.0,0.0,0.0,141000,45084.56712,0,726R,PLEASANT ST,BOSTON,MA,2110,151484.0,42.39530095,-71.17890319,13.0,64.0,42.0,Some Transit,"7 nearby routes: 6 bus, 1 rail, 0 other",72.22222222222221,53.0
6944,1077326,F_745895_2969528,972,972,26,Belmont,24th Middlesex District,933000.0,0.0,0.0,933000,95944.87441,0,101B,CHANNING RD,BOSTON,MA,2110,121429.0,42.39605703,-71.16781899,,63.0,41.0,Some Transit,"6 nearby routes: 5 bus, 1 rail, 0 other",,52.0
6935,1077202,F_742473_2968699,972,972,26,Belmont,24th Middlesex District,108000.0,0.0,0.0,108000,35254.02579,0,774B,PLEASANT ST,BOSTON,MA,2110,73005.0,42.39381812,-71.18049886,10.0,60.0,42.0,Some Transit,"5 nearby routes: 4 bus, 1 rail, 0 other",55.55555555555556,51.0
6936,1077204,F_742419_2968679,972,972,26,Belmont,24th Middlesex District,123000.0,0.0,0.0,123000,19513.5697,0,746,PLEASANT ST,BOSTON,MA,2110,73005.0,42.39376379,-71.18069904,9.0,60.0,42.0,Some Transit,"5 nearby routes: 4 bus, 1 rail, 0 other",50.0,51.0
6943,1077312,F_746749_2969456,972,972,26,Belmont,24th Middlesex District,157000.0,0.0,0.0,157000,24037.95456,0,101C,CHANNING RD,BOSTON,MA,2110,174514.0,42.3958503,-71.1646585,,58.0,41.0,Some Transit,"6 nearby routes: 5 bus, 1 rail, 0 other",,49.5
4372,636419,F_821787_3024384,972,972,30,Beverly,6th Essex District,438200.0,3516600.0,7000.0,3961800,46009.40369,180224,100,RANTOUL ST,BOSTON,MA,2116,61646.0,42.54542293,-70.88540534,,89.0,34.0,Some Transit,"2 nearby routes: 1 bus, 1 rail, 0 other",,61.5
4400,646143,F_822036_3038256,972,972,30,Beverly,6th Essex District,153880.0,0.0,10820.0,164700,13392.91992,0,5,ENON ST,BOSTON,MA,2116,95863.0,42.58348054,-70.88410967,15.0,73.0,34.0,Some Transit,"2 nearby routes: 1 bus, 1 rail, 0 other",83.33333333333334,53.5
4401,646219,F_822040_3038375,972,972,30,Beverly,6th Essex District,268800.0,0.0,12100.0,280900,16202.43312,0,5,ENON ST,BOSTON,MA,2116,95863.0,42.58380697,-70.88409163,15.0,73.0,34.0,Some Transit,"2 nearby routes: 1 bus, 1 rail, 0 other",83.33333333333334,53.5
4385,642218,F_826091_3030433,972,972,30,Beverly,6th Essex District,209100.0,0.0,16700.0,225800,28288.38062,0,0,SPRING ST,BOSTON,MA,2116,84449.0,42.56193424,-70.86926836,10.0,56.0,34.0,Some Transit,"2 nearby routes: 1 bus, 1 rail, 0 other",55.55555555555556,45.0
8519,1256556,F_787856_2856267,972,972,44,Brockton,9th Plymouth District,420660.0,1764720.0,0.0,2185380,145308.8493,50867,10,COMMERCIAL ST,BROCKTON,MA,2301,62879.0,42.0847073,-71.01486387,,80.0,50.0,Good Transit,"15 nearby routes: 14 bus, 1 rail, 0 other",,65.0
8520,1256789,F_787831_2856558,972,972,44,Brockton,9th Plymouth District,324590.0,343880.0,0.0,668470,52385.866760000004,3164,0,COURT ST,BROCKTON,MA,2301,62879.0,42.08550624,-71.01494987,,80.0,50.0,Good Transit,"15 nearby routes: 14 bus, 1 rail, 0 other",,65.0
8429,1244664,F_788475_2846190,972,972,44,Brockton,9th Plymouth District,38040.0,0.0,0.0,38040,9866.379944,0,0,MAIN ST,BROCKTON,MA,2301,44451.0,42.05704481,-71.01279559999999,,68.0,38.0,Some Transit,"4 nearby routes: 3 bus, 1 rail, 0 other",,53.0
8430,1244669,F_788414_2846232,972,972,44,Brockton,9th Plymouth District,11670.0,3330.0,0.0,15000,2554.171885,0,0,MAIN ST,BROCKTON,MA,2301,44451.0,42.05716102,-71.01301934,,68.0,38.0,Some Transit,"4 nearby routes: 3 bus, 1 rail, 0 other",,53.0
8431,1244764,F_788471_2846295,972,972,44,Brockton,9th Plymouth District,132450.0,11560.0,0.0,144010,13192.6044,0,0,MAIN ST,BROCKTON,MA,2301,44451.0,42.05733301,-71.01280813,,68.0,38.0,Some Transit,"4 nearby routes: 3 bus, 1 rail, 0 other",,53.0
8432,1244965,F_788752_2846276,972,972,44,Brockton,9th Plymouth District,1111300.0,1080030.0,0.0,2191330,209858.783,19577,1442,MAIN ST,BROCKTON,MA,2301,44451.0,42.05727646,-71.01177381,,62.0,38.0,Some Transit,"4 nearby routes: 3 bus, 1 rail, 0 other",,50.0
12715,1939333,F_759077_2965017,972,972,49,Cambridge,25th Middlesex District,420500.0,1448500.0,0.0,1869000,15110.369069999999,8155,1713-5,MASS AVE,CAMBRIDGE,MA,2139,103708.0,42.3835276,-71.11909342,,97.0,75.0,Excellent Transit,"21 nearby routes: 19 bus, 2 rail, 0 other",,86.0
12706,1938200,F_759086_2966769,972,972,49,Cambridge,25th Middlesex District,107600.0,218800.0,0.0,326400,3961.600656,1769,1875,MASS AVE,BOSTON,MA,2116,146250.0,42.38833499,-71.11903115,,97.0,72.0,Excellent Transit,"19 nearby routes: 17 bus, 2 rail, 0 other",,84.5
12774,1948161,F_756426_2969964,972,972,49,Cambridge,24th Middlesex District,1699400.0,803500.0,0.0,2502900,71340.24455,7920,2381,MASS AVE,BOSTON,MA,2116,99453.0,42.39713428,-71.12882588,,97.0,70.0,Excellent Transit,"26 nearby routes: 24 bus, 2 rail, 0 other",,83.5
12691,1937104,F_752912_2968915,972,972,49,Cambridge,24th Middlesex District,400000.0,344500.0,0.0,744500,11471.3557,9016, ,CAMBRIDGEPARK DR,BOSTON,MA,2116,71250.0,42.39429704,-71.14185135,15.0,78.0,67.0,Good Transit,"22 nearby routes: 21 bus, 1 rail, 0 other",83.33333333333334,72.5
12794,1948818,F_752877_2969413,972,972,49,Cambridge,24th Middlesex District,4014100.0,38108000.0,0.0,42122100,210399.0267,225105, ,CAMBRIDGEPARK DR,BOSTON,MA,2116,71250.0,42.39566396,-71.14197318,15.0,74.0,67.0,Good Transit,"21 nearby routes: 20 bus, 1 rail, 0 other",83.33333333333334,70.5
9461,1445681,F_530338_2882965,972,972,54,Charlton,6th Worcester District,56600.0,0.0,0.0,56600,24234.04234,0,0,STAFFORD ST,CHARLTON,MA,1507,107364.0,42.15805967,-71.96408132,,18.0,40.28776978417266,,,,29.14388489208633
9462,1445692,F_530427_2883152,972,972,54,Charlton,6th Worcester District,60300.0,0.0,0.0,60300,24863.58148,0,0,J HAMMOND RD,CHARLTON,MA,1507,107364.0,42.15857415,-71.96375682,,18.0,40.28776978417266,,,,29.14388489208633
9460,1445677,F_530283_2882485,326,972,54,Charlton,6th Worcester District,497800.0,2150200.0,481800.0,3129800,667893.7234,14277,6W,MASS TURNPIKE,CHARLTON,MA,1507,107364.0,42.15674167,-71.96427453,,17.0,40.28776978417266,,,,28.64388489208633
9450,1444368,F_509408_2874703,972,972,54,Charlton,6th Worcester District,174700.0,141800.0,74900.0,391400,318136.2404,2016,5E,MASS TURNPIKE,CHARLTON,MA,1507,73424.0,42.13504934,-72.04108013,,14.0,40.28776978417266,,,,27.14388489208633
9451,1444382,F_509742_2874713,972,972,54,Charlton,6th Worcester District,252800.0,8700.0,42200.0,303700,146234.3453,231,5E,MASS TURNPIKE,CHARLTON,MA,1507,73424.0,42.13508259,-72.03984898,,14.0,40.28776978417266,,,,27.14388489208633
9455,1445098,F_527051_2880634,972,972,54,Charlton,7th Worcester District,66100.0,,,66100,62615.237310000004,0,0,WILSON LN,CHARLTON,MA,1507,73424.0,42.15161341,-71.97615619,,12.0,40.28776978417266,,,,26.14388489208633
9452,1444618,F_512898_2875906,972,972,54,Charlton,6th Worcester District,60800.0,86100.0,7700.0,154600,199421.8245,1113,166,STURBRIDGE RD,CHARLTON,MA,1507,73424.0,42.13841055,-72.02824075,,11.0,40.28776978417266,,,,25.64388489208633
9457,1445620,F_515495_2878328,972,972,54,Charlton,6th Worcester District,83800.0,,,83800,276214.9582,0,0,MASS TURNPIKE,CHARLTON,MA,1507,73424.0,42.14510053,-72.01871999,,3.0,40.28776978417266,,,,21.64388489208633
9458,1445621,F_516774_2878904,972,972,54,Charlton,6th Worcester District,8800.0,,,8800,15543.11204,0,0,MASS TURNPIKE,CHARLTON,MA,1507,73424.0,42.14670239,-72.01401665,,2.0,40.28776978417266,,,,21.14388489208633
9459,1445622,F_517060_2879029,972,972,54,Charlton,6th Worcester District,8400.0,,,8400,6299.798035,0,0,MASS TURNPIKE,CHARLTON,MA,1507,73424.0,42.14705013,-72.01296481,,2.0,40.28776978417266,,,,21.14388489208633
9595,1467836,F_752466_2904929,972,972,73,Dedham,,4018200.0,20545700.0,937200.0,25501100,9838328.449,61937,1,NEPONSET MEADOWS,BOSTON,MA,2114,,42.21872073,-71.14448969,,6.0,27.0,Some Transit,"1 nearby routes: 0 bus, 1 rail, 0 other",,16.5
2918,435190,F_1026410_2715020,972,972,75,Dennis,1st Barnstable District,832800.0,1484900.0,107900.0,2425600,451608.74799999996,19435,40,AMERICAN WAY SD,HYANNIS,MA,2601,,41.69004471,-70.14441424,1.0,31.0,40.28776978417266,,,5.555555555555555,35.643884892086334
2942,443902,M_274896_793817,972,972,89,Edgartown,"Barnstable, Dukes & Nantucket District",319000.0,1507400.0,310300.0,2136700,179877.5203,19645,11,A STREET,EDGARTOWN,MA,2539,64810.0,41.39095621,-70.60454178,3.0,17.0,40.28776978417266,,,16.666666666666664,28.64388489208633
4440,749337,F_775845_2971664,972,972,93,Everett,28th Middlesex District,251200.0,,,251200,9624.274499,0,0,PARIS ST,EVERETT,MA,2149,58243.0,42.40154473,-71.05690251,,85.0,51.0,Good Transit,"12 nearby routes: 12 bus, 0 rail, 0 other",,68.0
4446,752234,F_777871_2970688,972,972,93,Everett,28th Middlesex District,205400.0,,,205400,7835.315937,0,332,SECOND ST,EVERETT,MA,2149,58243.0,42.39883747,-71.04942067,,80.0,55.0,Good Transit,"14 nearby routes: 14 bus, 0 rail, 0 other",,67.5
4439,749165,F_773438_2970482,972,972,93,Everett,28th Middlesex District,9371600.0,9192400.0,112400.0,18676400,861653.1565,275728,84,BROADWAY,EVERETT,MA,2149,58243.0,42.39833529,-71.06583632,18.0,55.0,61.0,Good Transit,"14 nearby routes: 13 bus, 1 rail, 0 other",100.0,58.0
4451,752858,F_782265_2976782,972,972,93,Everett,28th Middlesex District,161400.0,,,165300,3930.726022,0,331,ELM ST,EVERETT,MA,2149,46250.0,42.41549446,-71.0330298,,62.0,52.0,Good Transit,"7 nearby routes: 7 bus, 0 rail, 0 other",,57.0
13849,2133373,M_249503_820540,972,972,94,Fairhaven,10th Bristol District,1763600.0,775700.0,4500.0,2543800,130940.9242,22151,14,MAIN STREET,WOOD`S HOLE,MA,2543,60714.0,41.63354419,-70.90590343,,50.0,40.28776978417266,,,,45.143884892086334
5675,890292,F_750015_2715642,972,972,95,Fall River,7th Bristol District,132700.0,0.0,0.0,132700,30971.3258,0,,SECOND ST,FALL RIVER,MA,2722,17632.0,41.69930691,-71.15635334,,92.0,48.0,Some Transit,"16 nearby routes: 16 bus, 0 rail, 0 other",,70.0
5643,886862,F_750591_2715344,972,972,95,Fall River,7th Bristol District,231000.0,776000.0,56300.0,1063300,19966.473140000002,17416,118,FOURTH ST,NEW BEDFORD,MA,2740,17632.0,41.69848273,-71.15424863,,91.0,48.0,Some Transit,"16 nearby routes: 16 bus, 0 rail, 0 other",,69.5
5619,882493,F_752375_2709483,972,972,95,Fall River,7th Bristol District,198500.0,284700.0,56700.0,539900,68255.39787,14150,601,BRAYTON AVE,NEW BEDFORD,MA,2740,54189.0,41.68237863,-71.14780489,,71.0,29.0,Some Transit,"6 nearby routes: 6 bus, 0 rail, 0 other",,50.0
12904,1966547,M_208221_892248,972,972,100,Framingham,7th Middlesex District,164800.0,584100.0,0.0,748900,30709.80334,6786,37,WAVERLEY ST,FRAMINGHAM,MA,1702,39518.0,42.28066341,-71.40033077,5.0,59.0,32.0,Some Transit,"5 nearby routes: 4 bus, 1 rail, 0 other",27.77777777777778,45.5
2257,280766,M_208610_870368,972,972,101,Franklin,10th Norfolk District,475800.0,131300.0,48200.0,655300,64748.58726,1579,25,DEPOT ST,BOSTON,MA,02284-5142,86642.0,42.083671700000004,-71.39593827,5.0,80.0,28.0,Some Transit,"2 nearby routes: 1 bus, 1 rail, 0 other",27.77777777777778,54.0
2262,281617,M_207939_869784,972,972,101,Franklin,10th Norfolk District,1200.0,0.0,0.0,1200,4074.726197,0,0,UNION ST,BOSTON,MA,02284-5142,,42.07842089,-71.40405601,1.0,70.0,24.0,Minimal Transit,"2 nearby routes: 1 bus, 1 rail, 0 other",5.555555555555555,47.0
2249,280267,M_205087_871135,972,972,101,Franklin,10th Norfolk District,232100.0,0.0,120000.0,352100,188842.0887,0,1112,WEST CENTRAL ST,BOSTON,MA,2110,132150.0,42.09060795,-71.43851107,3.0,23.0,28.0,Some Transit,"2 nearby routes: 1 bus, 1 rail, 0 other",16.666666666666664,25.5
2250,280268,M_204998_871003,972,972,101,Franklin,10th Norfolk District,222900.0,132100.0,92000.0,447000,152303.3817,1421,0,WEST CENTRAL ST,BOSTON,MA,2110,132150.0,42.0894201,-71.43958798,3.0,23.0,28.0,Some Transit,"2 nearby routes: 1 bus, 1 rail, 0 other",16.666666666666664,25.5
2258,280769,M_210464_871972,972,972,101,Franklin,,171700.0,0.0,0.0,171700,1012236.099,0,0,MAIN ST,JACKSONVILLE,FL,32202,,42.0980903,-71.37350184,,9.0,40.28776978417266,,,,24.64388489208633
8647,1278704,M_160187_924252,972,972,103,Gardner,2nd Worcester District,54100.0,794800.0,111300.0,960200,48570.9721,17416,555,MAIN ST,FITCHBURG,MA,1420,34349.0,42.56780831,-71.984883,5.0,74.0,27.0,Some Transit,"14 nearby routes: 14 bus, 0 rail, 0 other",27.77777777777778,50.5
9734,1496597,M_270520_931402,972,972,107,Gloucester,5th Essex District,402200.0,2937000.0,74900.0,3414100,257396.9381,45760,3,POND RD,GLOUCESTER,MA,1930,85219.0,42.62999355,-70.64027821,3.0,18.0,27.0,Some Transit,"18 nearby routes: 18 bus, 0 rail, 0 other",16.666666666666664,22.5
9915,1522106,M_251294_866034,972,972,123,Hanson,6th Plymouth District,300.0,0.0,0.0,300,589.7342993,0,0,MAIN ST,JAMAICA PLAIN,MA,2130,97340.0,42.04302164,-70.88044425,2.0,28.0,40.28776978417266,,,11.11111111111111,34.143884892086334
9916,1522108,M_251142_866196,972,972,123,Hanson,6th Plymouth District,351300.0,0.0,0.0,351300,230339.5937,0,0,PHILLIPS ST,JAMAICA PLAIN,MA,2130,97340.0,42.04449006,-70.88226595,2.0,24.0,40.28776978417266,,,11.11111111111111,32.143884892086334
9906,1520982,M_252020_865563,972,972,123,Hanson,6th Plymouth District,6300.0,0.0,0.0,6300,33470.0606,0,0,CROOKER PL,JAMAICA PLAIN,MA,2130,97340.0,42.0387334,-70.87171746,,22.0,40.28776978417266,,,,31.14388489208633
9898,1519325,M_252087_865449,972,972,123,Hanson,6th Plymouth District,8800.0,0.0,0.0,8800,67467.97231,0,0,CROOKER PL,JAMAICA PLAIN,MA,2130,97340.0,42.0377026,-70.87091843,,17.0,40.28776978417266,,,,28.64388489208633
9899,1519427,M_250774_866604,972,972,123,Hanson,6th Plymouth District,25800.0,0.0,0.0,25800,339178.195,0,0,PHILLIPS ST,JAMAICA PLAIN,MA,0,97340.0,42.04818721,-70.88667536,2.0,8.0,40.28776978417266,,,11.11111111111111,24.14388489208633
9910,1521353,M_254529_863833,972,972,123,Hanson,6th Plymouth District,13300.0,0.0,0.0,13300,17176.78323,0,0,MONPONSETT ST,JAMAICA PLAIN,MA,2130,102037.0,42.02298776,-70.84157694,,8.0,40.28776978417266,,,,24.14388489208633
9914,1522080,M_249920_867273,972,972,123,Hanson,6th Plymouth District,800.0,0.0,0.0,800,4354.708721,0,0,WEST WASHINGTON ST,JAMAICA PLAIN,MA,2130,97340.0,42.05426507,-70.89693377,,8.0,40.28776978417266,,,,24.14388489208633
9908,1521228,M_253287_864726,972,972,123,Hanson,6th Plymouth District,117800.0,0.0,0.0,117800,24172.62038,0,0,PLEASANT ST,JAMAICA PLAIN,MA,2130,97340.0,42.03111281,-70.85649184,,4.0,40.28776978417266,,,,22.14388489208633
9909,1521245,M_253422_864588,972,972,123,Hanson,6th Plymouth District,35500.0,0.0,0.0,35500,31806.854,0,0,PLEASANT ST,JAMAICA PLAIN,MA,2130,102037.0,42.02986121,-70.85487421,,4.0,40.28776978417266,,,,22.14388489208633
5854,916423,F_767456_3105623,325,975,128,Haverhill,15th Essex District,600.0,149600.0,0.0,150200,686.8669466,3958,185,SOUTH ELM ST,BOSTON,MA,2110,66157.0,42.76922448,-71.08555159999999,,74.0,40.0,Some Transit,"9 nearby routes: 8 bus, 1 rail, 0 other",,57.0
5858,916477,F_766239_3104763,972,972,128,Haverhill,15th Essex District,128600.0,0.0,0.0,128600,17466.49613,0,79,RAILROAD AVE,BRADFORD,MA,1835,66157.0,42.76688103,-71.09009909999999,,55.0,40.28776978417266,,,,47.643884892086334
5859,916478,F_765772_3104283,972,972,128,Haverhill,15th Essex District,1128100.0,1133100.0,116300.0,2377500,265064.0128,63069,123,RAILROAD AVE,BRADFORD,MA,1835,66157.0,42.765570200000006,-71.0918467,,31.0,40.28776978417266,,,,35.643884892086334
10059,1548208,F_814332_2781126,972,972,146,Lakeville,12th Bristol District,535200.0,0.0,53100.0,588300,368454.4819,0,15,COMMERCIAL DR,BOSTON,MA,2116,,41.87805355,-70.91921536,2.0,19.0,27.0,Some Transit,"3 nearby routes: 2 bus, 1 rail, 0 other",11.11111111111111,23.0
10109,1565432,M_228482_939123,972,972,149,Lawrence,16th Essex District,248100.0,2953500.0,122500.0,3324100,77574.76387000001,130680,,MERRIMACK ST,HAVERHILL,MA,1835,46394.0,42.70217512,-71.15237743,,84.0,45.0,Some Transit,"17 nearby routes: 16 bus, 1 rail, 0 other",,64.5
10161,1585917,F_582557_3028305,972,972,153,Leominster,4th Worcester District,198300.0,1917500.0,152800.0,2268600,77009.72811,58624,840,NORTH MAIN ST,FITCHBURG,MA,1420,53347.0,42.55749563,-71.77320592,4.0,65.0,31.0,Some Transit,"17 nearby routes: 17 bus, 0 rail, 0 other",22.22222222222222,48.0
10162,1586035,F_582140_3028215,972,972,153,Leominster,,68400.0,870200.0,58300.0,996900,22376.716269999997,52114,49,NICHOLS ST,FITCHBURG,MA,1420,,42.557245,-71.77475255,5.0,64.0,32.0,Some Transit,"17 nearby routes: 17 bus, 0 rail, 0 other",27.77777777777778,48.0
1205,120823,F_655286_3015251,972,972,158,Littleton,2nd Middlesex District,376200.0,0.0,0.0,376200,270610.3499,0,263,FOSTER ST,BOSTON,MA,2116,113581.0,42.52199979,-71.50326679,2.0,5.0,27.0,Some Transit,"2 nearby routes: 1 bus, 1 rail, 0 other",11.11111111111111,16.0
10337,1602239,F_705794_3055707,972,972,160,Lowell,17th Middlesex District,832900.0,2398800.0,692800.0,3924500,277099.0145,71375,100,HALE ST,LOWELL,MA,1852,45739.0,42.63285985,-71.31558547,,81.0,54.0,Good Transit,"26 nearby routes: 25 bus, 1 rail, 0 other",,67.5
7254,1111147,M_245602_912560,972,972,163,Lynn,11th Essex District,1182700.0,7466000.0,0.0,8648700,156619.3503,345384,200,MARKET ST,BOSTON,MA,2116,22340.0,42.46223626,-70.9455402,,95.0,49.0,Some Transit,"12 nearby routes: 11 bus, 1 rail, 0 other",,72.0
7251,1111058,M_245722_912603,972,972,163,Lynn,11th Essex District,146900.0,0.0,16100.0,163000,16601.50086,0,0,UNION ST,BOSTON,MA,2116,22340.0,42.46261633,-70.94407779,,94.0,49.0,Some Transit,"12 nearby routes: 11 bus, 1 rail, 0 other",,71.5
7259,1111736,M_245803_912755,972,972,163,Lynn,11th Essex District,216300.0,182200.0,0.0,398500,33369.900089999996,11448,20,EXCHANGE ST,BOSTON,MA,2114,,42.46397993,-70.94308089,,93.0,49.0,Some Transit,"12 nearby routes: 11 bus, 1 rail, 0 other",,71.0
7218,1108641,M_244440_911872,390,975,163,Lynn,11th Essex District,74200.0,0.0,54000.0,128200,15111.465380000001,0,0,COMMERCIAL ST,BOSTON,MA,2116,36339.0,42.45610975,-70.95972118,16.0,79.0,45.0,Some Transit,"12 nearby routes: 11 bus, 1 rail, 0 other",88.88888888888889,62.0
7221,1108784,M_244575_911994,390,975,163,Lynn,11th Essex District,101900.0,0.0,54000.0,155900,4283.569415,0,0,COMMERCIAL ST,BOSTON,MA,2116,36339.0,42.45720033,-70.95807054,,76.0,46.0,Some Transit,"12 nearby routes: 11 bus, 1 rail, 0 other",,61.0
7292,1117534,M_246953_913496,390,975,163,Lynn,10th Essex District,7500.0,0.0,27000.0,34500,162265.8093,0,0,EASTERN AVE,BOSTON,MA,2116,,42.47058223,-70.92903813,,79.0,43.0,Some Transit,"8 nearby routes: 7 bus, 1 rail, 0 other",,61.0
7211,1108506,M_243217_911764,972,972,163,Lynn,11th Essex District,1292900.0,886900.0,48400.0,2228200,105467.4477,58829,985,WESTERN AVE,BOSTON,MA,2116,67750.0,42.45520627,-70.97459749,,67.0,51.0,Good Transit,"12 nearby routes: 11 bus, 1 rail, 0 other",,59.0
7209,1108381,M_243111_911640,972,972,163,Lynn,11th Essex District,525200.0,0.0,26300.0,551500,40246.09184,0,0,WESTERN AVE,BOSTON,MA,2116,67750.0,42.45409584,-70.9758954,,65.0,50.0,Good Transit,"12 nearby routes: 11 bus, 1 rail, 0 other",,57.5
1264,135414,F_732237_2836885,972,972,167,Mansfield,14th Bristol District,189600.0,175500.0,9000.0,374100,24607.01093,4560,1,CROCKER ST,BOSTON,MA,2130,89660.0,42.03220428,-71.21999354,3.0,71.0,33.0,Some Transit,"3 nearby routes: 2 bus, 1 rail, 0 other",16.666666666666664,52.0
8911,1312461,F_772199_2986692,972,972,178,Melrose,,298200.0,0.0,0.0,298200,37489.22636,0,0,WASHINGTON ST,BOSTON,MA,2130,,42.44283242,-71.07012083,,56.0,56.0,Good Transit,"7 nearby routes: 6 bus, 1 rail, 0 other",,56.0
9086,1364458,F_1041566_2567897,972,972,197,Nantucket,"Barnstable, Dukes & Nantucket District",3259500.0,,,3279300,14158.60668,0,27,STEAMBOAT WF,NANTUCKET,MA,2554,99167.0,41.28568044,-70.09778741,17.0,65.0,40.28776978417266,,,94.44444444444444,52.643884892086334
9087,1364546,F_1042037_2567941,972,972,197,Nantucket,,38685300.0,2005300.0,2906600.0,43597200,96119.4645,7384,1,STEAMBOAT WF,NANTUCKET,MA,2554,99167.0,41.28577991,-70.09607143,18.0,64.0,40.28776978417266,,,100.0,52.143884892086334
9085,1364424,F_1041787_2567841,972,972,197,Nantucket,,5278500.0,0.0,600.0,5279100,4298.825739,0,3,STEAMBOAT WF,WOODS HOLE,MA,2543,99167.0,41.28551681,-70.09698683,19.0,64.0,40.28776978417266,,,105.55555555555556,52.143884892086334
9067,1355939,F_1053835_2557874,972,972,197,Nantucket,"Barnstable, Dukes & Nantucket District",589000.0,662600.0,23000.0,1274600,56026.96638,7875,35,BUNKER RD,NANTUCKET,MA,2554,124189.0,41.25761672,-70.05377533,,3.0,40.28776978417266,,,,21.64388489208633
10800,1659678,F_812657_2692862,972,972,201,New Bedford,13th Bristol District,336600.0,2391800.0,0.0,2728400,29896.22067,92340,134,ELM ST,NEW BEDFORD,MA,2740,13845.0,41.63586993,-70.92754098,,79.0,47.0,Some Transit,"16 nearby routes: 16 bus, 0 rail, 0 other",,63.0
10764,1652693,F_814619_2688487,972,972,201,New Bedford,13th Bristol District,519600.0,320400.0,251300.0,1091300,136722.8371,15088,65,POTOMSKA ST,NEW BEDFORD,MA,2744,27134.0,41.62382762,-70.92047272,,76.0,34.0,Some Transit,"16 nearby routes: 16 bus, 0 rail, 0 other",,55.0
8048,1202147,F_739358_2945292,972,972,207,Newton,12th Middlesex District,3400.0,0.0,0.0,3400,390.5546398,0,,UNION ST,BOSTON,MA,2114,156505.0,42.32961994,-71.19234286,,86.0,50.0,Good Transit,"9 nearby routes: 8 bus, 1 rail, 0 other",,68.0
8121,1210083,F_739182_2945188,972,972,207,Newton,12th Middlesex District,115300.0,0.0,0.0,115300,5556.672555,0,,UNION ST,BOSTON,MA,2130,156505.0,42.329336299999994,-71.19299512,,86.0,50.0,Good Transit,"9 nearby routes: 8 bus, 1 rail, 0 other",,68.0
8123,1210184,F_739529_2945376,972,972,207,Newton,12th Middlesex District,98400.0,0.0,0.0,98400,1813.2222989999998,0,,UNION ST,BOSTON,MA,2114,156505.0,42.32984875,-71.19170935,,86.0,50.0,Good Transit,"9 nearby routes: 8 bus, 1 rail, 0 other",,68.0
8052,1202297,F_738646_2944727,972,972,207,Newton,12th Middlesex District,119800.0,0.0,0.0,119800,3356.2323590000005,0,,PAUL ST OFF,BOSTON,MA,2114,156505.0,42.32807657,-71.19498342,,82.0,50.0,Good Transit,"9 nearby routes: 8 bus, 1 rail, 0 other",,66.0
8053,1202380,F_738911_2945001,972,972,207,Newton,12th Middlesex District,6100.0,0.0,0.0,6100,1187.561233,0,,HERRICK RD,JAMAICA PLAIN,MA,2130,156505.0,42.32882584,-71.1939998,,82.0,40.28776978417266,,,,61.143884892086334
8082,1205924,F_734736_2941173,972,972,207,Newton,12th Middlesex District,17800.0,0.0,0.0,17800,7478.973237,0,49,WINCHESTER ST OFF,JAMAICA PLAIN,MA,2130,116094.0,42.31836164,-71.20948763,,79.0,40.28776978417266,,,,59.643884892086334
8083,1206071,F_733270_2941050,972,972,207,Newton,12th Middlesex District,23900.0,0.0,0.0,23900,5381.509765,0,1060,BOYLSTON ST,BOSTON,MA,2114,116094.0,42.31803769,-71.21490968,,64.0,50.0,Good Transit,"7 nearby routes: 6 bus, 1 rail, 0 other",,57.0
7979,1187263,F_746055_2949352,972,972,207,Newton,,1151800.0,436500.0,0.0,1588300,72023.96837,6168,7,COMMONWEALTH AVE,BOSTON,MA,2114,,42.34069182,-71.16751781,1.0,54.0,58.0,Good Transit,"13 nearby routes: 11 bus, 2 rail, 0 other",5.555555555555555,56.0
8076,1204824,F_732863_2941463,972,972,207,Newton,12th Middlesex District,613100.0,0.0,6700.0,619800,18041.25547,0,248,LINCOLN ST OFF,BOSTON,MA,2114,146094.0,42.31917471,-71.21640948,,59.0,50.0,Good Transit,"7 nearby routes: 6 bus, 1 rail, 0 other",,54.5
8127,1210291,F_723498_2947868,972,972,207,Newton,11th Middlesex District,17100.0,0.0,0.0,17100,11357.27465,0,298,GROVE ST,BOSTON,MA,2114,129028.0,42.33683065,-71.25096793,5.0,49.0,52.0,Good Transit,"8 nearby routes: 6 bus, 2 rail, 0 other",27.77777777777778,50.5
8041,1201687,F_729613_2943364,972,972,207,Newton,12th Middlesex District,20400.0,0.0,0.0,20400,11483.402,0,0,CHESTNUT ST OFF,BOSTON,MA,2114,232875.0,42.324420200000006,-71.22840414,3.0,50.0,49.0,Some Transit,"4 nearby routes: 3 bus, 1 rail, 0 other",16.666666666666664,49.5
8126,1210290,F_723439_2947774,972,972,207,Newton,11th Middlesex District,118800.0,0.0,9800.0,128600,15511.35622,0,300,GROVE ST OFF,BOSTON,MA,2114,129028.0,42.33657318,-71.25118716,5.0,40.0,52.0,Good Transit,"8 nearby routes: 6 bus, 2 rail, 0 other",27.77777777777778,46.0
8007,1188947,F_725252_2946718,972,972,207,Newton,11th Middlesex District,13700.0,0.0,0.0,13700,4508.215595000001,0,1948,WASHINGTON ST,BOSTON,MA,2114,182813.0,42.33366075,-71.24449335,5.0,25.0,51.0,Good Transit,"7 nearby routes: 6 bus, 1 rail, 0 other",27.77777777777778,38.0
8008,1188948,F_725480_2946681,113,972,207,Newton,11th Middlesex District,10075100.0,39248400.0,0.0,49323500,80760.03784,164969,1940,WASHINGTON ST,NEWTON,MA,2462,182813.0,42.33355734,-71.24365053,4.0,25.0,51.0,Good Transit,"7 nearby routes: 6 bus, 1 rail, 0 other",22.22222222222222,38.0
8034,1200903,F_726043_2946303,972,972,207,Newton,11th Middlesex District,3498700.0,3101000.0,0.0,6599700,219050.0327,102000,1940,WASHINGTON ST,BOSTON,MA,2114,182813.0,42.33251543,-71.24157257,4.0,20.0,51.0,Good Transit,"7 nearby routes: 6 bus, 1 rail, 0 other",22.22222222222222,35.5
8036,1201454,F_726541_2945857,972,972,207,Newton,11th Middlesex District,86500.0,0.0,0.0,86500,8471.240668999999,0,1940,WASHINGTON ST,BOSTON,MA,2114,182813.0,42.33128742,-71.23973583,4.0,21.0,50.0,Good Transit,"7 nearby routes: 6 bus, 1 rail, 0 other",22.22222222222222,35.5
8130,1210619,F_722073_2949308,920,975,207,Newton,11th Middlesex District,1956200.0,0.0,0.0,1956200,43326.74088,0,355,GROVE ST OFF,BOSTON,MA,2116,129028.0,42.34079339,-71.25622319,7.0,3.0,51.0,Good Transit,"8 nearby routes: 6 bus, 2 rail, 0 other",38.88888888888889,27.0
8129,1210598,F_722674_2947632,972,972,207,Newton,11th Middlesex District,12432300.0,10291100.0,572400.0,23295800,1120649.808,158360,355,GROVE ST,ATLANTA,GA,30355,129028.0,42.33618961,-71.25401808,2.0,4.0,40.28776978417266,,,11.11111111111111,22.14388489208633
11208,1702227,M_107137_897129,972,972,214,Northampton,1st Hampshire District,48400.0,0.0,0.0,48400,146596.8275,0,,BRIDGE ST,NO BILLERICA,MA,1862,68092.0,42.31912866,-72.62656303,,95.0,40.28776978417266,,,,67.64388489208633
11235,1705267,M_107306_896757,972,972,214,Northampton,1st Hampshire District,25000.0,0.0,0.0,25000,55251.03664,0,,HOLYOKE ST TO HOCKONUM,NO BILLERICA,MA,1862,43836.0,42.31579996,-72.62445356,19.0,80.0,40.28776978417266,,,105.55555555555556,60.143884892086334
11271,1706965,M_106264_899419,972,972,214,Northampton,1st Hampshire District,13500.0,0.0,0.0,13500,101908.4189,0,,DAMON RD,NO BILLERICA,MA,1862,52557.0,42.33963905,-72.63752301,6.0,57.0,40.28776978417266,,,33.33333333333333,48.643884892086334
11269,1706952,M_106518_898995,442,972,214,Northampton,1st Hampshire District,152860.0,0.0,0.0,152860,562873.2453,0,44,KING ST,NO BILLERICA,MA,1862,,42.33585264,-72.63437256,8.0,44.0,40.28776978417266,,,44.44444444444444,42.143884892086334
11195,1699524,M_106884_898704,972,972,214,Northampton,1st Hampshire District,268950.0,1589320.0,0.0,1858270,87862.91139,0,54,INDUSTRIAL DR,SPRINGFIELD,MA,1103,52557.0,42.33327678,-72.62988502,8.0,43.0,32.0,Some Transit,"4 nearby routes: 4 bus, 0 rail, 0 other",44.44444444444444,37.5
11177,1697663,M_106439_901422,972,972,214,Northampton,1st Hampshire District,6600.0,0.0,0.0,6600,5012.394544,0,,NORTH KING ST,NO BILLERICA,MA,1862,52557.0,42.35769106,-72.6357232,,10.0,40.28776978417266,,,,25.14388489208633
11270,1706962,M_106316_900924,972,972,214,Northampton,1st Hampshire District,189990.0,0.0,0.0,189990,655795.0559,0,,NORTH KING ST,NO BILLERICA,MA,1862,,42.35319332,-72.63713551,,5.0,40.28776978417266,,,,22.64388489208633
13530,2073717,M_225026_883002,972,972,220,Norwood,12th Norfolk District,6500.0,0.0,0.0,6500,16707.28765,0, ,RAILROAD AVENUE,NORWOOD,MA,2062,71250.0,42.19706466,-71.19699076,20.0,85.0,40.28776978417266,,,111.11111111111111,62.643884892086334
13521,2072655,M_224771_882027,972,972,220,Norwood,12th Norfolk District,255800.0,122400.0,11000.0,389200,24160.5512,1755,164-170,BROADWAY,BOSTON,MA,2160,88030.0,42.18829483,-71.20011972,18.0,90.0,34.0,Some Transit,"2 nearby routes: 1 bus, 1 rail, 0 other",100.0,62.0
13525,2072746,M_224819_882057,972,972,220,Norwood,12th Norfolk District,402500.0,0.0,56600.0,459100,73824.00916,0, ,LENOX STREET,BOSTON,MA,2160,92260.0,42.1885634,-71.19953735,16.0,87.0,34.0,Some Transit,"2 nearby routes: 1 bus, 1 rail, 0 other",88.88888888888889,60.5
13519,2071822,M_224472_881302,972,972,220,Norwood,12th Norfolk District,22500.0,0.0,0.0,22500,3025.838435,0, ,"BROADWAY, WASHINGTON ST",NORWOOD,MA,2062,92260.0,42.18177703,-71.2037699,18.0,79.0,40.28776978417266,,,100.0,59.643884892086334
13532,2074235,M_224478_881343,972,972,220,Norwood,12th Norfolk District,10000.0,0.0,0.0,10000,1330.00157,0, ,"BROADWAY, WASHINGTON ST",NORWOOD,MA,2062,88030.0,42.18214597,-71.20369555,19.0,79.0,40.28776978417266,,,105.55555555555556,59.643884892086334
13539,2075755,M_225026_882957,972,972,220,Norwood,12th Norfolk District,250600.0,0.0,4300.0,254900,9330.115904,0, ,"BROADWAY, WASHINGTON ST",BOSTON,MA,2116,71250.0,42.19665953,-71.1969927,20.0,85.0,34.0,Some Transit,"2 nearby routes: 1 bus, 1 rail, 0 other",111.11111111111111,59.5
13529,2073427,M_225059_883160,972,972,220,Norwood,12th Norfolk District,17500.0,0.0,0.0,17500,5745.446729,0, ,"BROADWAY, WASHINGTON ST",NORWOOD,MA,2062,71250.0,42.19848608,-71.1965844,19.0,78.0,40.28776978417266,,,105.55555555555556,59.143884892086334
13522,2072718,M_224835_881901,972,972,220,Norwood,12th Norfolk District,710900.0,0.0,0.0,710900,125204.6486,0,239,LENOX ST,BOSTON,MA,2116,92260.0,42.18715842,-71.19935031,16.0,76.0,34.0,Some Transit,"2 nearby routes: 1 bus, 1 rail, 0 other",88.88888888888889,55.0
13523,2072735,M_224840_881989,972,972,220,Norwood,12th Norfolk District,27300.0,0.0,0.0,27300,60566.20287000001,0, ,LENOX STREET,BOSTON,MA,2160,92260.0,42.18795052,-71.19928603,16.0,76.0,34.0,Some Transit,"2 nearby routes: 1 bus, 1 rail, 0 other",88.88888888888889,55.0
13524,2072736,M_224880_881990,972,972,220,Norwood,12th Norfolk District,5100.0,0.0,0.0,5100,9797.034415,0, ,LENOX STREET,BOSTON,MA,2160,92260.0,42.18795826,-71.19880175,16.0,76.0,34.0,Some Transit,"2 nearby routes: 1 bus, 1 rail, 0 other",88.88888888888889,55.0
13520,2072237,M_224605_881421,972,972,220,Norwood,12th Norfolk District,11100.0,0.0,0.0,11100,11331.53055,0, ,LENOX STREET,BOSTON,MA,2116,92260.0,42.18284422,-71.20215494,19.0,76.0,33.0,Some Transit,"2 nearby routes: 1 bus, 1 rail, 0 other",105.55555555555556,54.5
13531,2073740,M_225072_883348,972,972,220,Norwood,12th Norfolk District,14600.0,0.0,0.0,14600,4694.185839,0, ,LAND OUTSIDE 5 ROD LIMIT,BOSTON,MA,2160,71250.0,42.20017823,-71.1964189,18.0,63.0,34.0,Some Transit,"2 nearby routes: 1 bus, 1 rail, 0 other",100.0,48.5
13544,2078824,M_223716_880744,972,972,220,Norwood,12th Norfolk District,16100.0,0.0,0.0,16100,8960.022915000001,0, ,LAND OUTSIDE 5 ROD LIMIT,BOSTON,MA,2160,90455.0,42.176776600000004,-71.21294383,19.0,54.0,32.0,Some Transit,"2 nearby routes: 1 bus, 1 rail, 0 other",105.55555555555556,43.0
13533,2074243,M_225106_883542,972,972,220,Norwood,12th Norfolk District,5700.0,0.0,0.0,5700,17313.510769999997,0, ,"BROADWAY, WASHINGTON ST",NORWOOD,MA,2062,71250.0,42.20192373,-71.19599884,17.0,39.0,40.28776978417266,,,94.44444444444444,39.643884892086334
13517,2071729,M_223631_880725,972,972,220,Norwood,12th Norfolk District,18500.0,0.0,0.0,18500,21777.20826,0, ,LAND OUTSIDE 5 ROD LIMIT,BOSTON,MA,2160,90547.0,42.17660811,-71.21397343,20.0,46.0,32.0,Some Transit,"2 nearby routes: 1 bus, 1 rail, 0 other",111.11111111111111,39.0
13518,2071744,M_224007_881041,972,972,220,Norwood,12th Norfolk District,19800.0,0.0,0.0,19800,12976.68232,0, ,OUTSIDE 5 ROD LIMIT,BOSTON,MA,2160,90547.0,42.17944164,-71.20940938,18.0,47.0,31.0,Some Transit,"2 nearby routes: 1 bus, 1 rail, 0 other",100.0,39.0
13515,2071246,M_223478_880570,972,972,220,Norwood,12th Norfolk District,10200.0,0.0,0.0,10200,46932.2712,0, ,LAND OUTSIDE 5 ROD LIMIT,BOSTON,MA,2160,90547.0,42.17521724,-71.21583156,16.0,42.0,33.0,Some Transit,"2 nearby routes: 1 bus, 1 rail, 0 other",88.88888888888889,37.5
13516,2071727,M_223564_880659,972,972,220,Norwood,12th Norfolk District,10400.0,0.0,0.0,10400,12557.95319,0, ,LAND OUTSIDE 5 ROD LIMIT,BOSTON,MA,2160,90547.0,42.17601593,-71.21478705,18.0,42.0,33.0,Some Transit,"2 nearby routes: 1 bus, 1 rail, 0 other",100.0,37.5
13541,2076718,M_223044_880054,972,972,220,Norwood,12th Norfolk District,8300.0,0.0,0.0,8300,4990.987968,0, ,OUTSIDE 5 ROD LIMIT,BOSTON,MA,2160,,42.17058456,-71.22110491,5.0,31.0,34.0,Some Transit,"2 nearby routes: 1 bus, 1 rail, 0 other",27.77777777777778,32.5
13534,2074744,M_225156_883916,972,972,220,Norwood,12th Norfolk District,16600.0,0.0,0.0,16600,5298.457657,0, ,WASHINGTON STREET,BOSTON,MA,2160,71250.0,42.20528924,-71.19537724,15.0,36.0,28.0,Some Transit,"1 nearby routes: 1 bus, 0 rail, 0 other",83.33333333333334,32.0
13535,2074745,M_225137_883910,972,972,220,Norwood,12th Norfolk District,18800.0,0.0,0.0,18800,20397.71439,0, ,WASHINGTON STREET,BOSTON,MA,2160,71250.0,42.20523584,-71.19560758,15.0,36.0,28.0,Some Transit,"1 nearby routes: 1 bus, 0 rail, 0 other",83.33333333333334,32.0
13528,2073346,M_227094_882197,972,972,220,Norwood,12th Norfolk District,,469600.0,,498300,18913633.68,13008,209,ACCESS ROAD,NORWOOD,MA,2062,92260.0,42.18974836,-71.17198959999999,,10.0,40.28776978417266,,,,25.14388489208633
13514,2071090,M_223232_880314,972,972,220,Norwood,12th Norfolk District,9600.0,0.0,0.0,9600,50299.93826,0, ,LAND OUTSIDE 5 ROD LIMIT,BOSTON,MA,2160,90547.0,42.172919799999995,-71.21881924,14.0,14.0,34.0,Some Transit,"2 nearby routes: 1 bus, 1 rail, 0 other",77.77777777777779,24.0
13543,2078823,M_223242_880265,972,972,220,Norwood,12th Norfolk District,9200.0,0.0,0.0,9200,7608.771317,0, ,OUTSIDE 5 ROD LIMIT,BOSTON,MA,2160,90455.0,42.17247835,-71.21870016,14.0,14.0,34.0,Some Transit,"2 nearby routes: 1 bus, 1 rail, 0 other",77.77777777777779,24.0
13526,2073249,M_223481_880516,972,972,220,Norwood,12th Norfolk District,33900.0,0.0,0.0,33900,109370.302,0, ,LAND OUTSIDE 5 ROD LIMIT,BOSTON,MA,2160,90455.0,42.17473099,-71.21579743,18.0,13.0,33.0,Some Transit,"2 nearby routes: 1 bus, 1 rail, 0 other",100.0,23.0
7379,1135738,M_278881_801302,972,972,221,Oak Bluffs,"Barnstable, Dukes & Nantucket District",2020300.0,269400.0,1154600.0,3444300,3897.3810909999997,1705,1,SEA VIEW AV,WOODS HOLE,MA,2543,82045.0,41.45795637,-70.55591035,13.0,60.0,40.28776978417266,,,72.22222222222221,50.143884892086334
8947,1316025,F_804720_3006679,972,972,229,Peabody,,533600.0,,,533600,590528.6143,0,0,SPRING POND RD,PEABODY,MA,1960,,42.49716247,-70.94916109,8.0,13.0,40.28776978417266,,,44.44444444444444,26.64388489208633
8976,1322366,F_792517_3018213,972,972,229,Peabody,12th Essex District,865300.0,0.0,0.0,865300,52002.5827,0,76,NEWBURY ST,BOSTON,MA,2116,105885.0,42.52901799,-70.99415533,,34.0,0.0,No Nearby Transit,"0 nearby routes: 0 bus, 0 rail, 0 other",,17.0
11445,1733244,F_182659_2994386,972,972,236,Pittsfield,3rd Berkshire District,215200.0,5011470.0,0.0,5226670,80733.4969,0,1,COLUMBUS AVE,PITTSFIELD,MA,1201,21329.0,42.45138267,-73.25461552,14.0,91.0,36.0,Some Transit,"15 nearby routes: 15 bus, 0 rail, 0 other",77.77777777777779,63.5
11453,1736201,F_198271_2997003,972,972,236,Pittsfield,3rd Berkshire District,135800.0,969990.0,0.0,1105790,171155.3317,0,67,DOWNING PKWY,PITTSFIELD,MA,1201,62500.0,42.45942893,-73.1969726,3.0,24.0,26.0,Some Transit,"6 nearby routes: 6 bus, 0 rail, 0 other",16.666666666666664,25.0
11522,1746696,F_790238_2916771,972,972,243,Quincy,2nd Norfolk District,487300.0,0.0,31500.0,518800,64543.26482999999,0,166,THOMAS BURGIN PARKWAY (-2,BOSTON,MA,2114,,42.25069936,-71.00479487,,93.0,71.0,Excellent Transit,"21 nearby routes: 17 bus, 4 rail, 0 other",,82.0
11519,1746531,F_789907_2917631,972,972,243,Quincy,2nd Norfolk District,72500.0,0.0,0.0,72500,2451.953422,0,22,DIMMOCK STREET,BOSTON,MA,2114,63189.0,42.25306453,-71.00599903,,90.0,71.0,Excellent Transit,"21 nearby routes: 17 bus, 4 rail, 0 other",,80.5
11523,1746701,F_790458_2914554,972,972,243,Quincy,2nd Norfolk District,387500.0,0.0,0.0,387500,9268.963038,0,95,SCHOOL STREET,BOSTON,MA,2114,63189.0,42.24461225,-71.00402991,,91.0,65.0,Good Transit,"21 nearby routes: 17 bus, 4 rail, 0 other",,78.0
11525,1746718,F_790303_2914286,972,972,243,Quincy,2nd Norfolk District,72900.0,0.0,300.0,73200,3319.9594829999996,0,101,SCHOOL STREET (-105),BOSTON,MA,2114,63189.0,42.24387931,-71.00460809999998,,91.0,65.0,Good Transit,"21 nearby routes: 17 bus, 4 rail, 0 other",,78.0
11544,1749781,F_790408_2914122,972,972,243,Quincy,2nd Norfolk District,262100.0,0.0,1000.0,263100,9508.014474,0,100,SCHOOL STREET,BOSTON,MA,2114,60445.0,42.243427600000004,-71.00422385,,90.0,62.0,Good Transit,"21 nearby routes: 17 bus, 4 rail, 0 other",,76.0
11545,1749783,F_790371_2914009,972,972,243,Quincy,2nd Norfolk District,85800.0,0.0,0.0,85800,2430.2649030000002,0,0,FRANKLIN STREET (REAR),BOSTON,MA,2114,60445.0,42.24311811,-71.00436291,,90.0,62.0,Good Transit,"21 nearby routes: 17 bus, 4 rail, 0 other",,76.0
11546,1749784,F_790333_2913778,972,972,243,Quincy,2nd Norfolk District,123400.0,0.0,0.0,123400,10228.61061,0,0,FRANKLIN STREET (REAR),BOSTON,MA,2114,60445.0,42.24248484,-71.00450821,,90.0,62.0,Good Transit,"21 nearby routes: 17 bus, 4 rail, 0 other",,76.0
11548,1749789,F_790396_2914010,972,972,243,Quincy,2nd Norfolk District,83000.0,0.0,500.0,83500,2043.252437,0,0,FRANKLIN PLACE,BOSTON,MA,2114,60445.0,42.24312046,-71.00427057,,90.0,62.0,Good Transit,"21 nearby routes: 17 bus, 4 rail, 0 other",,76.0
11549,1749790,F_790383_2913927,972,972,243,Quincy,2nd Norfolk District,81600.0,0.0,400.0,82000,1755.780108,0,0,FRANKLIN PLACE,BOSTON,MA,2114,60445.0,42.24289291,-71.00432036,,90.0,62.0,Good Transit,"21 nearby routes: 17 bus, 4 rail, 0 other",,76.0
11550,1749791,F_790354_2913771,972,972,243,Quincy,2nd Norfolk District,103700.0,0.0,1500.0,105200,4154.935203,0,0,FRANKLIN PLACE,BOSTON,MA,2114,60445.0,42.2424653,-71.0044308,,90.0,62.0,Good Transit,"21 nearby routes: 17 bus, 4 rail, 0 other",,76.0
11638,1759816,F_783939_2925164,972,972,243,Quincy,1st Norfolk District,298700.0,0.0,20000.0,318700,19525.17052,0,2,BILLINGS ROAD (REAR),BOSTON,MA,2114,82300.0,42.27382831,-71.02788875,,92.0,60.0,Good Transit,"7 nearby routes: 6 bus, 1 rail, 0 other",,76.0
11648,1761609,F_784065_2924796,972,972,243,Quincy,1st Norfolk District,335300.0,0.0,9700.0,345000,5411.6545240000005,0,62,NEWPORT AVENUE (-66),BOSTON,MA,2114,73692.0,42.27281658,-71.02743073,,92.0,60.0,Good Transit,"7 nearby routes: 6 bus, 1 rail, 0 other",,76.0
11650,1761698,F_783977_2924871,972,972,243,Quincy,1st Norfolk District,371200.0,0.0,18000.0,389200,11413.67795,0,62,NEWPORT AVENUE,BOSTON,MA,2114,73692.0,42.27302373,-71.02775434,,92.0,60.0,Good Transit,"7 nearby routes: 6 bus, 1 rail, 0 other",,76.0
11651,1761700,F_783732_2925209,972,972,243,Quincy,1st Norfolk District,491700.0,0.0,40300.0,532000,32577.52775,0,10,NEWPORT AVENUE,BOSTON,MA,2114,73692.0,42.27395494,-71.02865267,,92.0,60.0,Good Transit,"7 nearby routes: 6 bus, 1 rail, 0 other",,76.0
11652,1761701,F_783865_2925071,972,972,243,Quincy,1st Norfolk District,342200.0,0.0,31100.0,373300,9948.871699,0,10R,NEWPORT AVENUE (-50),BOSTON,MA,2114,73692.0,42.27357424,-71.02816407,,92.0,60.0,Good Transit,"7 nearby routes: 6 bus, 1 rail, 0 other",,76.0
11526,1746722,F_790188_2914327,972,972,243,Quincy,2nd Norfolk District,368800.0,0.0,4700.0,373500,10404.45774,0,113,SCHOOL STREET (-117),BOSTON,MA,2114,63189.0,42.24399365,-71.00503193,,86.0,65.0,Good Transit,"21 nearby routes: 17 bus, 4 rail, 0 other",,75.5
11527,1746723,F_790261_2914333,972,972,243,Quincy,2nd Norfolk District,194900.0,0.0,1000.0,195900,13479.32986,0,107,SCHOOL STREET,BOSTON,MA,2114,63189.0,42.24400895,-71.0047622,,86.0,65.0,Good Transit,"21 nearby routes: 17 bus, 4 rail, 0 other",,75.5
11528,1746725,F_789986_2914310,972,972,243,Quincy,2nd Norfolk District,238400.0,228800.0,8800.0,476000,5477.836182999999,1280,129,SCHOOL STREET (-131),BOSTON,MA,2114,63189.0,42.24395021,-71.00577831,,86.0,65.0,Good Transit,"21 nearby routes: 17 bus, 4 rail, 0 other",,75.5
11547,1749786,F_790291_2913447,972,972,243,Quincy,2nd Norfolk District,149900.0,0.0,1500.0,151400,5158.0393810000005,0,0,WATER STREET,BOSTON,MA,2114,60445.0,42.24157722,-71.00467041,,90.0,61.0,Good Transit,"21 nearby routes: 17 bus, 4 rail, 0 other",,75.5
11624,1756515,F_786362_2922165,972,972,243,Quincy,1st Norfolk District,226000.0,104200.0,3100.0,333300,10983.3126,3840,5R,OLD COLONY AVENUE (-31),BOSTON,MA,2114,74730.0,42.26556172,-71.01899859,,91.0,60.0,Good Transit,"7 nearby routes: 6 bus, 1 rail, 0 other",,75.5
11626,1756598,F_786279_2922510,972,972,243,Quincy,1st Norfolk District,468300.0,0.0,143600.0,611900,156518.4221,0,63,BEALE STREET (-95A),BOSTON,MA,2114,65461.0,42.26650971,-71.01929804,,91.0,60.0,Good Transit,"7 nearby routes: 6 bus, 1 rail, 0 other",,75.5
11521,1746620,F_789365_2918224,972,972,243,Quincy,2nd Norfolk District,216500.0,0.0,0.0,216500,15617.9206,0,,THOMAS BURGIN PARKWAY,QUINCY,MA,2169,63189.0,42.25470035,-71.00798835,,81.0,70.0,Excellent Transit,"21 nearby routes: 17 bus, 4 rail, 0 other",,75.5
11524,1746715,F_790111_2914329,972,972,243,Quincy,2nd Norfolk District,211200.0,0.0,0.0,211200,12038.61175,0,119,SCHOOL STREET (-121),QUINCY,MA,2169,63189.0,42.24400036,-71.00531626,,86.0,65.0,Good Transit,"21 nearby routes: 17 bus, 4 rail, 0 other",,75.5
11655,1763018,F_783373_2925645,972,972,243,Quincy,13th Suffolk District,448100.0,0.0,0.0,448100,24435.7574,0,228,NEWPORT AVENUE EXT (-248),QUINCY,MA,2169,73692.0,42.27515678,-71.02997025,,91.0,60.0,Good Transit,"7 nearby routes: 6 bus, 1 rail, 0 other",,75.5
11556,1750614,F_790256_2914129,972,972,243,Quincy,2nd Norfolk District,125300.0,0.0,24400.0,149700,2280.909744,0,110,SCHOOL STREET,BOSTON,MA,2114,60445.0,42.24344924,-71.00478504,,88.0,62.0,Good Transit,"21 nearby routes: 17 bus, 4 rail, 0 other",,75.0
11557,1750615,F_790231_2913801,972,972,243,Quincy,2nd Norfolk District,11900.0,0.0,300.0,12200,1574.0074869999999,0,0,QUINCY & MARSH STS,BOSTON,MA,2114,60445.0,42.24254958,-71.00488440000001,,88.0,62.0,Good Transit,"21 nearby routes: 17 bus, 4 rail, 0 other",,75.0
11637,1758832,F_784707_2924187,972,972,243,Quincy,1st Norfolk District,25700.0,0.0,0.0,25700,1675.717214,0,1,BILLINGS ROAD (REAR),BOSTON,MA,2114,,42.27113566,-71.0250712,,92.0,58.0,Good Transit,"7 nearby routes: 6 bus, 1 rail, 0 other",,75.0
11640,1759852,F_783068_2926469,972,972,243,Quincy,,2044000.0,315800.0,137600.0,2497400,153543.3807,2080,189,HANCOCK STREET (-259),BOSTON,MA,2114,,42.2774225,-71.03108047,,89.0,61.0,Good Transit,"8 nearby routes: 7 bus, 1 rail, 0 other",,75.0
11634,1756846,F_786105_2922299,972,972,243,Quincy,2nd Norfolk District,154800.0,0.0,117500.0,272300,2033.1815170000002,0,0,BEALE STREET &,BOSTON,MA,2114,99191.0,42.265933399999994,-71.01994526,,89.0,60.0,Good Transit,"7 nearby routes: 6 bus, 1 rail, 0 other",,74.5
11639,1759851,F_783465_2925958,972,972,243,Quincy,1st Norfolk District,1733800.0,0.0,99000.0,1832800,204270.9585,0,263,HANCOCK STREET (-267),BOSTON,MA,2114,82300.0,42.27601428,-71.02962394,,89.0,60.0,Good Transit,"8 nearby routes: 7 bus, 1 rail, 0 other",,74.5
11649,1761610,F_784373_2924477,972,972,243,Quincy,1st Norfolk District,304800.0,0.0,0.0,304800,5148.996827,0,68R,NEWPORT AVENUE,QUINCY,MA,2169,73692.0,42.27193654,-71.02629928,,90.0,59.0,Good Transit,"7 nearby routes: 6 bus, 1 rail, 0 other",,74.5
11554,1750559,F_790171_2912678,972,972,243,Quincy,3rd Norfolk District,192500.0,0.0,7300.0,199800,5370.211288,0,31,FEDERAL AVENUE,BOSTON,MA,2114,60445.0,42.23946894,-71.00513005,,87.0,61.0,Good Transit,"21 nearby routes: 17 bus, 4 rail, 0 other",,74.0
11555,1750560,F_790221_2913019,972,972,243,Quincy,3rd Norfolk District,314600.0,0.0,17600.0,332200,62771.92167,0,1,FEDERAL AVENUE (-29),BOSTON,MA,2114,60445.0,42.24040387,-71.00493809999999,,87.0,61.0,Good Transit,"21 nearby routes: 17 bus, 4 rail, 0 other",,74.0
11623,1756510,F_786812_2921556,972,972,243,Quincy,1st Norfolk District,168500.0,0.0,0.0,168500,6620.599118,0,55R,OLD COLONY AVENUE (-75),BOSTON,MA,2114,74730.0,42.26388361,-71.01734885,,88.0,59.0,Good Transit,"7 nearby routes: 6 bus, 1 rail, 0 other",,73.5
11627,1756625,F_785995_2922899,972,972,243,Quincy,1st Norfolk District,158100.0,0.0,0.0,158100,3705.3152159999995,0,58,WESTON AVENUE,BOSTON,MA,2114,65461.0,42.26758153,-71.02033917,,87.0,60.0,Good Transit,"7 nearby routes: 6 bus, 1 rail, 0 other",,73.5
11628,1756626,F_785962_2922930,972,972,243,Quincy,1st Norfolk District,154900.0,0.0,0.0,154900,3467.093785,0,54,WESTON AVENUE,BOSTON,MA,2114,65461.0,42.26766711,-71.02046045,,87.0,60.0,Good Transit,"7 nearby routes: 6 bus, 1 rail, 0 other",,73.5
11629,1756628,F_786067_2922814,972,972,243,Quincy,1st Norfolk District,172400.0,0.0,0.0,172400,4685.779735,0,66,WESTON AVENUE,BOSTON,MA,2114,65461.0,42.26734718,-71.02007494,,87.0,60.0,Good Transit,"7 nearby routes: 6 bus, 1 rail, 0 other",,73.5
11630,1756629,F_786122_2922762,972,972,243,Quincy,1st Norfolk District,197200.0,0.0,0.0,197200,8981.466423,0,74,WESTON AVENUE,BOSTON,MA,2110,65461.0,42.26720364,-71.01987282,,87.0,60.0,Good Transit,"7 nearby routes: 6 bus, 1 rail, 0 other",,73.5
11632,1756683,F_785917_2922743,972,972,243,Quincy,1st Norfolk District,252700.0,0.0,8000.0,260700,59148.88465,0,33,WESTON AVENUE (-75),BOSTON,MA,2114,,42.26715466,-71.02063058,,87.0,60.0,Good Transit,"7 nearby routes: 6 bus, 1 rail, 0 other",,73.5
11551,1750553,F_790087_2912477,972,972,243,Quincy,3rd Norfolk District,93600.0,0.0,0.0,93600,4865.941793999999,0,31R,FEDERAL AVENUE (-39),BOSTON,MA,2114,60445.0,42.23891872,-71.00544455,,83.0,62.0,Good Transit,"21 nearby routes: 17 bus, 4 rail, 0 other",,72.5
11552,1750554,F_790118_2912597,972,972,243,Quincy,3rd Norfolk District,67300.0,0.0,0.0,67300,1256.985605,0,37,FEDERAL AVENUE (REAR),BOSTON,MA,2114,60445.0,42.23924751,-71.0053275,,83.0,62.0,Good Transit,"21 nearby routes: 17 bus, 4 rail, 0 other",,72.5
11553,1750556,F_790092_2912438,972,972,243,Quincy,3rd Norfolk District,29100.0,0.0,0.0,29100,469.22359500000005,0,45,FEDERAL AVENUE (REAR),BOSTON,MA,2114,60445.0,42.23881162,-71.00542692,,83.0,62.0,Good Transit,"21 nearby routes: 17 bus, 4 rail, 0 other",,72.5
11664,1763194,F_789946_2912225,972,972,243,Quincy,3rd Norfolk District,124100.0,0.0,2500.0,126600,2834.0982480000002,0,0,PENN STREET (OFF),BOSTON,MA,2114,60445.0,42.23822945,-71.00597063,,83.0,62.0,Good Transit,"21 nearby routes: 17 bus, 4 rail, 0 other",,72.5
11669,1763265,F_782639_2927274,972,972,243,Quincy,1st Norfolk District,185000.0,0.0,9500.0,194500,5828.277994,0,0,COMMANDER SHEA BOULEVARD,QUINCY,MA,2169,82300.0,42.27963792,-71.03264936,19.0,85.0,60.0,Good Transit,"8 nearby routes: 7 bus, 1 rail, 0 other",105.55555555555556,72.5
11558,1750629,F_789983_2913250,972,972,243,Quincy,2nd Norfolk District,82000.0,0.0,4000.0,86000,8469.631954,0,195,WATER STREET,BOSTON,MA,2114,60445.0,42.24104154,-71.00581207,,83.0,61.0,Good Transit,"21 nearby routes: 17 bus, 4 rail, 0 other",,72.0
11559,1750630,F_790080_2913338,972,972,243,Quincy,2nd Norfolk District,194500.0,0.0,1400.0,195900,6335.699734000001,0,187,WATER STREET,BOSTON,MA,2114,60445.0,42.24128148,-71.00545197,,83.0,61.0,Good Transit,"21 nearby routes: 17 bus, 4 rail, 0 other",,72.0
11560,1750638,F_790137_2913522,972,972,243,Quincy,2nd Norfolk District,202000.0,0.0,1700.0,203700,12897.901259999999,0,0,THOMAS BURGIN PARKWAY,BOSTON,MA,2114,60445.0,42.24178548,-71.00523753,,83.0,61.0,Good Transit,"21 nearby routes: 17 bus, 4 rail, 0 other",,72.0
11633,1756693,F_785081_2923722,972,972,243,Quincy,1st Norfolk District,197000.0,0.0,0.0,197000,10113.84623,0,0,LINDEN STREET,BOSTON,MA,2114,65461.0,42.26985395,-71.02369897,,85.0,59.0,Good Transit,"7 nearby routes: 6 bus, 1 rail, 0 other",,72.0
11520,1746553,F_788839_2919005,972,972,243,Quincy,2nd Norfolk District,90200.0,0.0,7000.0,97200,8024.233867,0,43,BRIDGE STREET,BOSTON,MA,2114,,42.25685178,-71.00991469,,75.0,67.0,Good Transit,"21 nearby routes: 17 bus, 4 rail, 0 other",,71.0
11569,1751471,F_789869_2912186,972,972,243,Quincy,3rd Norfolk District,211800.0,0.0,0.0,211800,23361.80465,0,4,EAST PENN STREET,BOSTON,MA,2114,60445.0,42.23812366,-71.00625581,,81.0,61.0,Good Transit,"21 nearby routes: 17 bus, 4 rail, 0 other",,71.0
11668,1763254,F_788974_2918673,972,972,243,Quincy,2nd Norfolk District,84600.0,0.0,0.0,84600,1674.923522,0,2,THOMAS BURGIN PARKWAY,BOSTON,MA,2114,63189.0,42.25593862,-71.00942307,,75.0,67.0,Good Transit,"21 nearby routes: 17 bus, 4 rail, 0 other",,71.0
11561,1750693,F_789994_2911984,972,972,243,Quincy,3rd Norfolk District,89500.0,0.0,300.0,89800,5097.967218,0,83R,FEDERAL AVENUE,BOSTON,MA,2114,60445.0,42.23756737,-71.00579853,,77.0,62.0,Good Transit,"12 nearby routes: 11 bus, 1 rail, 0 other",,69.5
11562,1750694,F_789904_2911417,972,972,243,Quincy,3rd Norfolk District,50200.0,0.0,600.0,50800,1209.724766,0,125R,FEDERAL AVENUE,BOSTON,MA,2114,60445.0,42.2360129,-71.00614300000001,,75.0,62.0,Good Transit,"7 nearby routes: 6 bus, 1 rail, 0 other",,68.5
11621,1756371,F_787313_2920900,972,972,243,Quincy,2nd Norfolk District,79000.0,0.0,0.0,79000,642.4218552,0,131,OLD COLONY AVENUE,BOSTON,MA,2114,74730.0,42.26207571,-71.01551178,,76.0,57.0,Good Transit,"7 nearby routes: 6 bus, 1 rail, 0 other",,66.5
11657,1763133,F_782462_2927507,972,972,243,Quincy,13th Suffolk District,248600.0,0.0,13000.0,261600,8159.668367,0,0,HANCOCK STREET (OFF),BOSTON,MA,2108,73692.0,42.28027995,-71.0332987,14.0,74.0,58.0,Good Transit,"8 nearby routes: 7 bus, 1 rail, 0 other",77.77777777777779,66.0
11563,1750696,F_789854_2911144,972,972,243,Quincy,3rd Norfolk District,54000.0,0.0,400.0,54400,1769.2550899999999,0,143R,FEDERAL AVENUE,BOSTON,MA,2114,60445.0,42.23526457,-71.00633347,,69.0,62.0,Good Transit,"7 nearby routes: 6 bus, 1 rail, 0 other",,65.5
11567,1750721,F_789835_2911043,972,972,243,Quincy,3rd Norfolk District,3900.0,0.0,0.0,3900,339.8365402,0,0,INDEPENDENCE AVENUE (OFF),BOSTON,MA,2114,60445.0,42.23498772,-71.00640579,,69.0,62.0,Good Transit,"7 nearby routes: 6 bus, 1 rail, 0 other",,65.5
11618,1756302,F_788592_2919346,972,972,243,Quincy,2nd Norfolk District,79000.0,0.0,0.0,79000,3979.2320229999996,0,439,FURNACE BROOK PARKWAY,BOSTON,MA,2114,74730.0,42.2577914,-71.01081985,,64.0,64.0,Good Transit,"21 nearby routes: 17 bus, 4 rail, 0 other",,64.0
11631,1756631,F_786032_2922863,972,972,243,Quincy,1st Norfolk District,18000.0,0.0,0.0,18000,5494.733764,0,60,WESTON AVENUE,QUINCY MA,MA,2170,65461.0,42.26748218,-71.02020323,,87.0,40.28776978417266,,,,63.643884892086334
11564,1750705,F_789729_2910482,972,972,243,Quincy,3rd Norfolk District,217500.0,0.0,32500.0,250000,17084.88275,0,0,INDEPENDENCE AVENUE,BOSTON,MA,2114,60445.0,42.23344997,-71.00680918,,63.0,61.0,Good Transit,"7 nearby routes: 6 bus, 1 rail, 0 other",,62.0
11566,1750717,F_789839_2910486,972,972,243,Quincy,3rd Norfolk District,105600.0,0.0,1800.0,107400,13757.67341,0,163,INDEPENDENCE AVENUE,BOSTON,MA,2114,60445.0,42.2334592,-71.00640292,,63.0,61.0,Good Transit,"7 nearby routes: 6 bus, 1 rail, 0 other",,62.0
11570,1751480,F_789632_2910632,972,972,243,Quincy,3rd Norfolk District,385400.0,0.0,0.0,385400,28273.592060000003,0,172,PENN STREET,BOSTON,MA,0,60445.0,42.23386312,-71.00716415,,63.0,61.0,Good Transit,"7 nearby routes: 6 bus, 1 rail, 0 other",,62.0
11620,1756359,F_787772_2920343,972,972,243,Quincy,2nd Norfolk District,159200.0,0.0,0.0,159200,3775.8822130000003,0,179,OLD COLONY AVE,BOSTON,MA,2114,74730.0,42.2605401,-71.01382788,,66.0,55.0,Good Transit,"10 nearby routes: 9 bus, 1 rail, 0 other",,60.5
11622,1756373,F_787528_2920644,972,972,243,Quincy,2nd Norfolk District,237600.0,0.0,0.0,237600,16443.43933,0,135,OLD COLONY AVENUE,BOSTON,MA,2114,74730.0,42.26136987,-71.01472291,,66.0,55.0,Good Transit,"10 nearby routes: 9 bus, 1 rail, 0 other",,60.5
11572,1751482,F_789245_2910210,972,972,243,Quincy,3rd Norfolk District,2207800.0,0.0,0.0,2207800,207536.7987,0,424,CENTRE & PENN STS,BOSTON,MA,2116,60445.0,42.23271125,-71.00860214,,58.0,61.0,Good Transit,"7 nearby routes: 6 bus, 1 rail, 0 other",,59.5
11575,1751490,F_789475_2910085,972,972,243,Quincy,3rd Norfolk District,239300.0,0.0,0.0,239300,40924.169610000004,0,206,PENN STREET,BOSTON,MA,2114,60445.0,42.232364600000004,-71.00775554,,58.0,61.0,Good Transit,"7 nearby routes: 6 bus, 1 rail, 0 other",,59.5
11615,1756278,F_789017_2920164,972,972,243,Quincy,2nd Norfolk District,457600.0,0.0,160400.0,618000,167954.0351,0,954,HANCOCK STREET,BOSTON,MA,2114,74730.0,42.26002934,-71.00923254,,70.0,47.0,Some Transit,"9 nearby routes: 8 bus, 1 rail, 0 other",,58.5
11565,1750706,F_789735_2910288,972,972,243,Quincy,3rd Norfolk District,139300.0,0.0,6500.0,145800,27315.81109,0,0,INDEPENDENCE AVENUE,BOSTON,MA,2114,60445.0,42.23291752,-71.00679117,,55.0,61.0,Good Transit,"7 nearby routes: 6 bus, 1 rail, 0 other",,58.0
11663,1763167,F_789549_2910364,972,972,243,Quincy,3rd Norfolk District,2451100.0,19810900.0,456400.0,22718400,102135.2618,882936,180,PENN STREET,QUINCY,MA,2169,60445.0,42.23312902,-71.00747635,,55.0,61.0,Good Transit,"7 nearby routes: 6 bus, 1 rail, 0 other",,58.0
11619,1756352,F_788112_2919920,972,972,243,Quincy,2nd Norfolk District,77600.0,0.0,0.0,77600,5369.595961999999,0,0,OVAL ROAD,BOSTON,MA,2114,74730.0,42.25937403,-71.01258082,,61.0,52.0,Good Transit,"9 nearby routes: 8 bus, 1 rail, 0 other",,56.5
11665,1763199,F_787929_2920151,972,972,243,Quincy,2nd Norfolk District,76700.0,0.0,0.0,76700,4434.785267,0,0,SAINT ANNS ROAD,BOSTON,MA,2114,74730.0,42.26001078,-71.01325195,,61.0,52.0,Good Transit,"9 nearby routes: 8 bus, 1 rail, 0 other",,56.5
11656,1763131,F_782217_2927982,972,972,243,Quincy,13th Suffolk District,171200.0,0.0,0.0,171200,2104.313717,0,100R,HANCOCK STREET,BOSTON,MA,2216,73692.0,42.28158705,-71.03419445,10.0,71.0,36.0,Some Transit,"7 nearby routes: 7 bus, 0 rail, 0 other",55.55555555555556,53.5
11658,1763136,F_781879_2928375,972,972,243,Quincy,13th Suffolk District,16900.0,0.0,0.0,16900,690.71262,0,56R,QUINCY SHORE DRIVE,BOSTON,MA,2114,73692.0,42.28267053,-71.03543556,6.0,70.0,37.0,Some Transit,"7 nearby routes: 7 bus, 0 rail, 0 other",33.33333333333333,53.5
11659,1763137,F_781981_2928257,972,972,243,Quincy,13th Suffolk District,309600.0,0.0,0.0,309600,1909.562128,0,2,HANCOCK STREET (-80R),BOSTON,MA,2114,73692.0,42.2823452,-71.03506101,8.0,70.0,37.0,Some Transit,"7 nearby routes: 7 bus, 0 rail, 0 other",44.44444444444444,53.5
11670,1763296,F_799347_2914468,972,972,243,Quincy,3rd Norfolk District,4009300.0,0.0,0.0,4009300,406081.2107,0,683,WASHINGTON ST,BOSTON,MA,2114,53691.0,42.24422973,-70.97120349,9.0,55.0,39.0,Some Transit,"6 nearby routes: 6 bus, 0 rail, 0 other",50.0,47.0
11685,1766210,F_771404_2796317,972,972,245,Raynham,8th Plymouth District,26300.0,,,26300,162194.0753,0,0,PINE ST,RAYNHAM,,2767,98636.0,41.92043418,-71.07656741,,6.0,40.28776978417266,,,,23.14388489208633
1672,188404,F_760621_3016184,972,972,246,Reading,30th Middlesex District,1400.0,0.0,0.0,1400,5687.851735,0,OFF,HIGH ST,BOSTON,MA,2130,102634.0,42.52390892,-71.11251829,5.0,65.0,32.0,Some Transit,"3 nearby routes: 2 bus, 1 rail, 0 other",27.77777777777778,48.5
1675,189901,F_764226_3014190,972,972,246,Reading,30th Middlesex District,20900.0,0.0,0.0,20900,15570.367369999998,0,0,GENERAL ST,BOSTON,MA,2130,90811.0,42.51839184,-71.0991802,9.0,63.0,29.0,Some Transit,"3 nearby routes: 2 bus, 1 rail, 0 other",50.0,46.0
13599,2086077,F_818829_3016833,972,972,258,Salem,7th Essex District,782100.0,11600.0,79900.0,873600,91398.86811,432,252,BRIDGE STREET,BOSTON,MA,02284-5142,83594.0,42.52476197,-70.89657993,,93.0,34.0,Some Transit,"3 nearby routes: 3 bus, 0 rail, 0 other",,63.5
13598,2086070,F_818337_3016757,972,972,258,Salem,7th Essex District,91700.0,0.0,0.0,91700,8729.366909999999,0,70,NORTH STREET,BOSTON,MA,02284-5142,83594.0,42.52456297,-70.89840701,,88.0,34.0,Some Transit,"3 nearby routes: 3 bus, 0 rail, 0 other",,61.0
13560,2081698,F_818732_3011057,972,972,258,Salem,7th Essex District,0.0,0.0,0.0,0,34301.81728,0,142,CANAL STREET,BOSTON,MA,02284-5142,57316.0,42.50891521,-70.89709121,20.0,72.0,30.0,Some Transit,"2 nearby routes: 2 bus, 0 rail, 0 other",111.11111111111111,51.0
13558,2081546,F_818350_3010404,972,972,258,Salem,7th Essex District,5900.0,0.0,0.0,5900,10899.19755,0,11,LAWRENCE STREET,BOSTON,MA,02284-5142,69244.0,42.50713085,-70.89852497,18.0,54.0,29.0,Some Transit,"2 nearby routes: 2 bus, 0 rail, 0 other",100.0,41.5
13554,2080555,F_816949_3007139,972,972,258,Salem,7th Essex District,48400.0,0.0,0.0,48400,114333.1907,0,28,PARALLEL STREET,BOSTON,MA,02284-5142,73006.0,42.49819904,-70.90380520000001,8.0,44.0,26.0,Some Transit,"1 nearby routes: 1 bus, 0 rail, 0 other",44.44444444444444,35.0
7745,1159567,F_741880_2870596,972,972,266,Sharon,8th Norfolk District,220900.0,148300.0,59500.0,428700,29328.06292,0,66,DEPOT ST,BOSTON,MA,2116,115500.0,42.12462076,-71.18403938,1.0,39.0,32.0,Some Transit,"1 nearby routes: 0 bus, 1 rail, 0 other",5.555555555555555,35.5
4645,788223,M_47964_869605,972,972,267,Sheffield,4th Berkshire District,5000.0,0.0,0.0,5000,106106.1729,0,0,ASHLEY FALLS RD,OLD LYME,CT,6371,76250.0,42.0621086,-73.33704763,1.0,6.0,40.28776978417266,,,5.555555555555555,23.14388489208633
13695,2101148,F_759717_2966253,972,972,274,Somerville,27th Middlesex District,0.0,0.0,0.0,153300,1376.9134099999999,0,000R,BEACON ST,BOSTON,MA,2116,107115.0,42.38691133,-71.11670404,,97.0,73.0,Excellent Transit,"21 nearby routes: 19 bus, 2 rail, 0 other",,85.0
13644,2090630,F_760184_2965973,972,972,274,Somerville,27th Middlesex District,224600.0,0.0,11800.0,237400,3241.052028,0, ,SOMERVILLE AVE,BOSTON,MA,2116,107115.0,42.38613723,-71.11498012,,96.0,73.0,Excellent Transit,"21 nearby routes: 19 bus, 2 rail, 0 other",,84.5
13648,2091638,F_758006_2969868,972,972,274,Somerville,27th Middlesex District,691700.0,237700.0,14900.0,945500,5047.6476299999995,1918,45,DAVIS SQ,BOSTON,MA,2116,128958.0,42.39685184,-71.12297815,,98.0,71.0,Excellent Transit,"17 nearby routes: 15 bus, 2 rail, 0 other",,84.5
13650,2092680,F_756997_2970092,972,972,274,Somerville,,1789300.0,0.0,0.0,1801700,81703.02962999999,0, ,MEACHAM RD,BOSTON,MA,2116,,42.39747867,-71.12670991,,98.0,71.0,Excellent Transit,"26 nearby routes: 24 bus, 2 rail, 0 other",,84.5
13666,2095644,F_757931_2969975,972,972,274,Somerville,27th Middlesex District,259900.0,0.0,0.0,260400,1612.054247,0,20,HOLLAND ST,BOSTON,MA,2116,135000.0,42.39714635,-71.12325405,,98.0,71.0,Excellent Transit,"25 nearby routes: 23 bus, 2 rail, 0 other",,84.5
13668,2095648,F_758170_2969874,972,972,274,Somerville,27th Middlesex District,276500.0,0.0,12800.0,291200,2583.6620120000002,0,10,COLLEGE AVE,BOSTON,MA,2116,109896.0,42.39686631,-71.12237091,,98.0,71.0,Excellent Transit,"17 nearby routes: 15 bus, 2 rail, 0 other",,84.5
13671,2097144,F_760102_2965953,972,972,274,Somerville,27th Middlesex District,551700.0,0.0,0.0,553900,12241.25747,0,000R,BEACON ST,BOSTON,MA,2116,107115.0,42.38608337,-71.11528397,,96.0,73.0,Excellent Transit,"21 nearby routes: 19 bus, 2 rail, 0 other",,84.5
13663,2095569,F_758409_2969869,972,972,274,Somerville,27th Middlesex District,1829700.0,381600.0,36700.0,2251200,15164.65007,9264,0,DAVIS SQ,BOSTON,MA,2110,,42.39684968,-71.12148619,,97.0,71.0,Excellent Transit,"15 nearby routes: 13 bus, 2 rail, 0 other",,84.0
13677,2097647,F_761103_2965138,972,972,274,Somerville,27th Middlesex District,102000.0,0.0,0.0,101100,5478.308126,0,000R,SACRAMENTO ST,BOSTON,MA,2116,92045.0,42.38383455,-71.11159256,,95.0,70.0,Excellent Transit,"22 nearby routes: 20 bus, 2 rail, 0 other",,82.5
13692,2100635,F_770393_2961602,972,972,274,Somerville,26th Middlesex District,4222600.0,0.0,0.0,4229900,187675.4408,0,0,INNER BELT RD,BOSTON,MA,2116,,42.37401052,-71.0772723,,82.0,75.0,Excellent Transit,"32 nearby routes: 23 bus, 9 rail, 0 other",,78.5
13713,2103532,F_767069_2962211,972,972,274,Somerville,26th Middlesex District,21600.0,0.0,0.0,21700,268.76498310000005,0, ,HORACE ST,BOSTON,MA,2116,77539.0,42.37572617,-71.08956269,,94.0,63.0,Good Transit,"27 nearby routes: 26 bus, 1 rail, 0 other",,78.5
13689,2100156,F_770431_2966667,972,972,274,Somerville,,5336600.0,0.0,0.0,5345900,268706.1869,0,0,MYSTIC AVE,BOSTON,MA,2116,,42.3879084,-71.07703873,,85.0,71.0,Excellent Transit,"18 nearby routes: 17 bus, 1 rail, 0 other",,78.0
13657,2094286,F_761380_2970857,972,972,274,Somerville,27th Middlesex District,34900.0,0.0,0.0,34900,920.5840112,0,647,BROADWAY,BOSTON,MA,2116,87656.0,42.39952405,-71.11047063,,91.0,64.0,Good Transit,"15 nearby routes: 13 bus, 2 rail, 0 other",,77.5
13704,2102654,F_765279_2963087,972,972,274,Somerville,26th Middlesex District,111600.0,0.0,0.0,110600,6582.392999000001,0,46,NEWTON ST,BOSTON,MA,2116,100678.0,42.37815337,-71.09617184,,98.0,56.0,Good Transit,"17 nearby routes: 16 bus, 1 rail, 0 other",,77.0
13705,2102659,F_762977_2964017,972,972,274,Somerville,27th Middlesex District,255600.0,0.0,0.0,256100,3843.9957289999998,0, ,DANE ST,BOSTON,MA,2116,92045.0,42.38073489,-71.10467554,,95.0,59.0,Good Transit,"23 nearby routes: 21 bus, 2 rail, 0 other",,77.0
13711,2103160,F_765189_2963047,972,972,274,Somerville,27th Middlesex District,103500.0,0.0,0.0,102500,4695.773872,0, ,NEWTON ST,BOSTON,MA,2116,100678.0,42.37804478,-71.09650563,,97.0,57.0,Good Transit,"17 nearby routes: 16 bus, 1 rail, 0 other",,77.0
13714,2103655,F_765439_2962948,972,972,274,Somerville,26th Middlesex District,22200.0,0.0,0.0,22400,401.31634410000004,0, ,WEBSTER AVE,BOSTON,MA,2116,77539.0,42.37776987,-71.09558212,,98.0,56.0,Good Transit,"17 nearby routes: 16 bus, 1 rail, 0 other",,77.0
13688,2100152,F_764482_2963559,972,972,274,Somerville,27th Middlesex District,23200.0,0.0,0.0,23200,341.0163999,0, ,WASHINGTON ST,BOSTON,MA,2116,92045.0,42.37945886,-71.09911331,,98.0,54.0,Good Transit,"14 nearby routes: 14 bus, 0 rail, 0 other",,76.0
13696,2101156,F_761946_2964499,972,972,274,Somerville,27th Middlesex District,418100.0,0.0,0.0,420700,15496.440980000001,0,17,HARRISON ST,BOSTON,MA,2116,92045.0,42.38207055,-71.10848321,,86.0,66.0,Good Transit,"20 nearby routes: 18 bus, 2 rail, 0 other",,76.0
13697,2101428,F_764142_2965533,972,972,274,Somerville,27th Middlesex District,100700.0,0.0,85800.0,185600,5767.939933,0, ,SCHOOL ST,BOSTON,MA,2116,102264.0,42.38487991,-71.10033743,,94.0,56.0,Good Transit,"19 nearby routes: 17 bus, 2 rail, 0 other",,75.0
13700,2101659,F_766554_2965522,972,972,274,Somerville,26th Middlesex District,264000.0,0.0,0.0,263300,2403.279881,0, ,MCGRATH HWY,BOSTON,MA,2116,64073.0,42.38481837,-71.09140993,,85.0,64.0,Good Transit,"19 nearby routes: 18 bus, 1 rail, 0 other",,74.5
13656,2093645,F_754983_2972507,972,972,274,Somerville,34th Middlesex District,231000.0,0.0,0.0,232700,1700.7368219999998,0, ,ALEWIFE BROOK PKWY,BOSTON,MA,2108,71912.0,42.40412938,-71.13412762,,86.0,60.0,Good Transit,"15 nearby routes: 14 bus, 1 rail, 0 other",,73.0
13706,2102860,F_768630_2963522,972,972,274,Somerville,26th Middlesex District,3791900.0,4704100.0,194500.0,8697100,135628.9765,126934,32,COBBLE HILL RD,BOSTON,MA,2116,77539.0,42.37930281,-71.08376202,,70.0,74.0,Excellent Transit,"22 nearby routes: 21 bus, 1 rail, 0 other",,72.0
13709,2103151,F_769529_2963765,972,972,274,Somerville,26th Middlesex District,299400.0,0.0,0.0,300000,2598.491752,0, ,INNER BELT RD,BOSTON,MA,2116,77539.0,42.37995752,-71.08043036,,69.0,75.0,Excellent Transit,"21 nearby routes: 20 bus, 1 rail, 0 other",,72.0
13710,2103152,F_768612_2963752,972,972,274,Somerville,26th Middlesex District,974400.0,0.0,0.0,975800,29121.313239999996,0, ,COBBLE HILL RD,BOSTON,MA,2116,77539.0,42.37993417,-71.08382448,,70.0,74.0,Excellent Transit,"22 nearby routes: 21 bus, 1 rail, 0 other",,72.0
13652,2092951,F_755412_2973231,972,972,274,Somerville,34th Middlesex District,839700.0,0.0,43500.0,888200,24858.29433,0,1340,BROADWAY,BOSTON,MA,2116,71912.0,42.40611098,-71.1325277,,84.0,58.0,Good Transit,"15 nearby routes: 14 bus, 1 rail, 0 other",,71.0
13655,2093644,F_755024_2972633,972,972,274,Somerville,34th Middlesex District,411000.0,0.0,0.0,414100,6305.34732,0,18,WOODSTOCK ST,BOSTON,MA,2116,71912.0,42.40447464,-71.13397382,,84.0,58.0,Good Transit,"15 nearby routes: 14 bus, 1 rail, 0 other",,71.0
13676,2097568,F_770793_2962102,972,972,274,Somerville,,29165300.0,5290100.0,112500.0,34618200,997729.8986,28740,0,INNER BELT RD,BOSTON,MA,2116,,42.37537708,-71.07578281,,66.0,76.0,Excellent Transit,"31 nearby routes: 22 bus, 9 rail, 0 other",,71.0
13658,2094643,F_762790_2968387,972,972,274,Somerville,27th Middlesex District,72300.0,0.0,0.0,71500,2912.37144,0, ,VERNON ST,BOSTON,MA,2116,87656.0,42.39272858,-71.1052928,,80.0,60.0,Good Transit,"15 nearby routes: 13 bus, 2 rail, 0 other",,70.0
13681,2098154,F_762634_2968412,972,972,274,Somerville,27th Middlesex District,197500.0,0.0,0.0,198500,5469.548623,0, ,LOWELL ST,BOSTON,MA,2116,102264.0,42.39279916,-71.10586986,,80.0,60.0,Good Transit,"15 nearby routes: 13 bus, 2 rail, 0 other",,70.0
13662,2095143,F_761523_2970655,972,972,274,Somerville,27th Middlesex District,38700.0,0.0,1100.0,39800,1732.8146010000003,0,0,BROADWAY,BOSTON ST,MA,2116,87656.0,42.39896797,-71.10994463,,91.0,40.28776978417266,,,,65.64388489208633
13682,2098337,F_770865_2967765,972,972,274,Somerville,,9848400.0,0.0,0.0,9865400,433660.7573,0,0,FOLEY ST,BOSTON,MA,2116,,42.39091539,-71.07541203,,53.0,68.0,Good Transit,"19 nearby routes: 18 bus, 1 rail, 0 other",,60.5
13716,2103659,F_769554_2961940,972,972,274,Somerville,26th Middlesex District,3174900.0,0.0,0.0,3180400,142638.4248,0,0,INNER BELT RD,BOSTON,MA,2116,77539.0,42.37494936,-71.08037106,,42.0,73.0,Excellent Transit,"23 nearby routes: 22 bus, 1 rail, 0 other",,57.5
13712,2103162,F_768779_2962966,972,972,274,Somerville,26th Middlesex District,464700.0,0.0,0.0,468000,7599.360731000001,0, ,INNER BELT RD,BOSTON,MA,2116,77539.0,42.37777515,-71.08322062,,31.0,73.0,Excellent Transit,"24 nearby routes: 23 bus, 1 rail, 0 other",,52.0
13715,2103656,F_771033_2962666,972,972,274,Somerville,,5800000.0,0.0,0.0,5810000,317004.9136,0, ,THIRD AVE,BOSTON,MA,2116,,42.37692142,-71.07488421,,28.0,76.0,Excellent Transit,"24 nearby routes: 19 bus, 5 rail, 0 other",,52.0
4185,618852,F_360923_2864448,972,972,281,Springfield,10th Hampden District,749400.0,5217700.0,0.0,5967100,76972.86322,360000,41,HARRISON AV,SPRINGFIELD,MA,1103,14018.0,42.10301784,-72.5879983,,94.0,63.0,Good Transit,"25 nearby routes: 24 bus, 1 rail, 0 other",,78.5
4073,594518,F_361022_2865439,972,972,281,Springfield,10th Hampden District,94700.0,10800.0,0.0,105500,14502.53985,0,31,PEARL ST,SPRINGFIELD,MA,1103,14538.0,42.10574057,-72.58768009,,92.0,63.0,Good Transit,"25 nearby routes: 24 bus, 1 rail, 0 other",,77.5
4074,594769,F_360328_2865414,972,972,281,Springfield,10th Hampden District,79400.0,6500.0,0.0,85900,6613.947666,0,345,WORTHINGTON ST,SPRINGFIELD,MA,1103,14018.0,42.10564765,-72.59023619,,92.0,63.0,Good Transit,"25 nearby routes: 24 bus, 1 rail, 0 other",,77.5
4075,594917,F_360245_2865323,972,972,281,Springfield,10th Hampden District,93500.0,10200.0,0.0,103700,9402.021767,0,341,DWIGHT ST,SPRINGFIELD,MA,1103,14018.0,42.10539504,-72.59053774,,91.0,64.0,Good Transit,"25 nearby routes: 24 bus, 1 rail, 0 other",,77.5
4080,595283,F_360972_2865383,972,972,281,Springfield,10th Hampden District,59400.0,62100.0,0.0,121500,8372.047536,0,27,PEARL ST,SPRINGFIELD,MA,1103,14538.0,42.10558515,-72.5878617,,92.0,63.0,Good Transit,"25 nearby routes: 24 bus, 1 rail, 0 other",,77.5
4082,595418,F_360291_2865373,972,972,281,Springfield,10th Hampden District,73700.0,5400.0,0.0,79100,5503.113959,0,337,WORTHINGTON ST,SPRINGFIELD,MA,1103,14018.0,42.10553385,-72.59037059999999,,91.0,64.0,Good Transit,"25 nearby routes: 24 bus, 1 rail, 0 other",,77.5
4092,596189,F_360361_2865218,972,972,281,Springfield,10th Hampden District,91700.0,9700.0,0.0,101400,8723.931013,0,315,DWIGHT ST,SPRINGFIELD,MA,1103,14018.0,42.10511099,-72.59010536,,92.0,63.0,Good Transit,"25 nearby routes: 24 bus, 1 rail, 0 other",,77.5
4142,609770,F_360308_2865259,972,972,281,Springfield,10th Hampden District,63400.0,3500.0,0.0,66900,3044.190678,0,329,DWIGHT ST,SPRINGFIELD,MA,1103,14018.0,42.10522164,-72.59030259,,91.0,64.0,Good Transit,"25 nearby routes: 24 bus, 1 rail, 0 other",,77.5
4198,620346,F_359691_2865016,972,972,281,Springfield,10th Hampden District,235600.0,1030700.0,0.0,1266300,25287.82318,108000,,WORTHINGTON ST,SPRINGFIELD,MA,1103,14018.0,42.10453319,-72.59256464,,90.0,64.0,Good Transit,"25 nearby routes: 24 bus, 1 rail, 0 other",,77.0
4086,595717,F_359447_2865069,972,972,281,Springfield,10th Hampden District,27900.0,18400.0,0.0,46300,15651.42817,0,12,TAYLOR ST,SPRINGFIELD,MA,1103,14018.0,42.10467004,-72.59346623,,88.0,64.0,Good Transit,"25 nearby routes: 24 bus, 1 rail, 0 other",,76.0
4160,613780,F_359501_2864301,972,972,281,Springfield,10th Hampden District,75300.0,0.0,0.0,75300,5287.472796999999,0,,BRIDGE ST,SPRINGFIELD,MA,1103,14018.0,42.10256458,-72.59323098,,89.0,63.0,Good Transit,"25 nearby routes: 24 bus, 1 rail, 0 other",,76.0
4161,613787,F_359546_2864353,972,972,281,Springfield,10th Hampden District,100700.0,0.0,0.0,100700,10331.14185,0,,BRIDGE ST,SPRINGFIELD,MA,1103,14018.0,42.10270885,-72.59306763,,89.0,63.0,Good Transit,"25 nearby routes: 24 bus, 1 rail, 0 other",,76.0
4183,618519,F_359388_2864366,972,972,281,Springfield,10th Hampden District,177600.0,2264600.0,0.0,2442200,18369.693580000003,156250,1775,EAST COLUMBUS AV,SPRINGFIELD,MA,1103,14018.0,42.10273896,-72.59365042,,77.0,63.0,Good Transit,"25 nearby routes: 24 bus, 1 rail, 0 other",,70.0
4127,606377,F_368806_2858425,972,972,281,Springfield,10th Hampden District,53200.0,5600.0,0.0,58800,5152.573247,0,,DICKINSON ST,SPRINGFIELD,MA,1108,30577.0,42.08676312,-72.55867633,,84.0,46.0,Some Transit,"5 nearby routes: 5 bus, 0 rail, 0 other",,65.0
4172,617457,F_369101_2857904,972,972,281,Springfield,10th Hampden District,32800.0,12100.0,0.0,44900,10981.70415,0,,DICKINSON ST,SPRINGFIELD,MA,1103,41901.0,42.08534354,-72.55756582,,84.0,46.0,Some Transit,"5 nearby routes: 5 bus, 0 rail, 0 other",,65.0
3985,581175,F_377899_2877999,972,972,281,Springfield,9th Hampden District,414700.0,0.0,0.0,414700,322959.2378,0,,COTTAGE ST,SPRINGFIELD,MA,1107,37500.0,42.140778600000004,-72.52604717,,36.0,42.0,Some Transit,"5 nearby routes: 5 bus, 0 rail, 0 other",,39.0
3978,579887,F_377294_2877905,972,972,281,Springfield,9th Hampden District,313200.0,8900.0,0.0,322100,495142.5434,0,,COTTAGE ST,SPRINGFIELD,MA,1107,37500.0,42.14050067,-72.52827357,,33.0,42.0,Some Transit,"5 nearby routes: 5 bus, 0 rail, 0 other",,37.5
6333,1014855,F_811631_2997893,972,972,291,Swampscott,8th Essex District,150900.0,0.0,11000.0,161900,12889.34261,0,100,PINE ST,BOSTON,MA,2114,84107.0,42.47292918,-70.92375581,,77.0,44.0,Some Transit,"7 nearby routes: 6 bus, 1 rail, 0 other",,60.5
6336,1016211,F_811967_2998124,972,972,291,Swampscott,8th Essex District,217100.0,73300.0,24500.0,314900,27290.63993,1334,10,RAILROAD AV,BOSTON,MA,2114,84107.0,42.47355679,-70.92250463,,78.0,43.0,Some Transit,"7 nearby routes: 6 bus, 1 rail, 0 other",,60.5
6337,1016350,F_811901_2998216,972,972,291,Swampscott,8th Essex District,226300.0,0.0,36000.0,262300,44226.325410000005,0,0,COLUMBIA ST,BOSTON,MA,2114,84107.0,42.47381045,-70.92274696,,78.0,43.0,Some Transit,"7 nearby routes: 6 bus, 1 rail, 0 other",,60.5
6335,1015487,F_812349_2997163,972,972,291,Swampscott,8th Essex District,7100.0,0.0,0.0,7100,1384.230119,0,0,PARADISE RD,SWAMPSCOTT,MA,1907,114083.0,42.47091278,-70.92111292,,78.0,40.28776978417266,,,,59.143884892086334
6340,1017362,F_813216_2999579,972,972,291,Swampscott,8th Essex District,206800.0,0.0,0.0,206800,25990.9687,0,0,ESSEX ST,BOSTON,MA,2114,84107.0,42.47752589,-70.91783838,,63.0,41.0,Some Transit,"6 nearby routes: 5 bus, 1 rail, 0 other",,52.0
11854,1810476,M_223178_833458,972,972,292,Swansea,5th Bristol District,184600.0,217500.0,119500.0,521600,34555.77201,1444,1001,GAR HIGHWAY,,,,95205.0,41.75106288,-71.22132561,3.0,40.0,40.28776978417266,,,16.666666666666664,40.143884892086334
12070,1823606,F_764862_2789068,972,972,293,Taunton,3rd Bristol District,158500.0,1222400.0,169200.0,1550100,129344.6788,50966,2,OAK STREET,TAUNTON,MA,2780,31162.0,41.90062796,-71.10072992,20.0,77.0,40.28776978417266,,,111.11111111111111,58.643884892086334
4219,622371,M_246616_930316,972,972,298,Topsfield,,64300.0,0.0,0.0,64300,274883.2509,0,196,HIGH ST,BOSTON,MA,2110,,,,,54.66350710900474,40.28776978417266,,,,47.475638446588704
4213,621908,M_245089_931981,972,972,298,Topsfield,4th Essex District,8100.0,0.0,0.0,8100,42392.70098,0,8,SUMMER ST,BOSTON,MA,2110,136812.0,42.63709709,-70.95025553,1.0,42.0,11.0,Minimal Transit,"1 nearby routes: 1 bus, 0 rail, 0 other",5.555555555555555,26.5
4214,622029,M_245390_931650,972,972,298,Topsfield,4th Essex District,18200.0,0.0,6400.0,24600,105701.2744,0,228,BOSTON ST,BOSTON,MA,2110,136812.0,42.63409993,-70.94661189,1.0,28.0,11.0,Minimal Transit,"1 nearby routes: 1 bus, 0 rail, 0 other",5.555555555555555,19.5
4216,622236,M_245656_931359,972,972,298,Topsfield,4th Essex District,6800.0,0.0,0.0,6800,38258.67959,0,36,MAPLE ST,BOSTON,MA,2110,136812.0,42.63146478,-70.9433921,1.0,28.0,10.0,Minimal Transit,"1 nearby routes: 1 bus, 0 rail, 0 other",5.555555555555555,19.0
4217,622272,M_245975_931012,972,972,298,Topsfield,4th Essex District,28400.0,0.0,0.0,28400,163540.5739,0,189,HIGH ST,BOSTON,MA,2110,136812.0,42.6283223,-70.93953097,,17.0,8.0,Minimal Transit,"1 nearby routes: 1 bus, 0 rail, 0 other",,12.5
1848,205417,F_721872_2877892,972,972,307,Walpole,12th Norfolk District,406500.0,238900.0,33700.0,679100,65927.08624,3958,,WEST ST,BOSTON,MA,2110,103731.0,42.14482179,-71.25771698,9.0,50.0,34.0,Some Transit,"3 nearby routes: 2 bus, 1 rail, 0 other",50.0,42.0
1980,231763,F_717794_2943764,972,972,317,Wellesley,14th Norfolk District,4307000.0,0.0,0.0,4307000,2217901.6769999997,0,,Linden St.,Boston,MA,2110,,42.32561279,-71.27210522,2.0,18.0,30.0,Some Transit,"2 nearby routes: 1 bus, 1 rail, 0 other",11.11111111111111,24.0
2097,250682,F_324375_2879818,972,972,329,Westfield,4th Hampden District,101000.0,91300.0,54100.0,246400,323142.2493,3632,75,SGT T M DION WY,WESTFIELD,MA,1085,63516.0,42.14383304,-72.72347576,2.0,9.0,40.28776978417266,,,11.11111111111111,24.64388489208633
3690,539950,F_800448_2906201,972,972,336,Weymouth,,154100.0,0.0,0.0,154100,11857.13607,0,126,COMMERCIAL ST,ARLINGTON,MA,2474,,42.22152569,-70.96732803,,69.0,36.0,Some Transit,"3 nearby routes: 2 bus, 1 rail, 0 other",,52.5
3686,535326,F_800316_2906069,972,972,336,Weymouth,,198000.0,0.0,14500.0,212500,23913.326240000002,0,12,TABER CT,ARLINGTON,MA,2474,,42.22116573,-70.96781839,,68.0,36.0,Some Transit,"3 nearby routes: 2 bus, 1 rail, 0 other",,52.0
3676,533384,F_800480_2906537,972,972,336,Weymouth,,317000.0,0.0,130500.0,447500,98629.24449,0,0,COMMERCIAL ST,BOSTON,MA,2116,,42.22244715,-70.96720214,,66.0,36.0,Some Transit,"3 nearby routes: 2 bus, 1 rail, 0 other",,51.0
3689,536807,F_800671_2906471,972,972,336,Weymouth,3rd Norfolk District,153000.0,0.0,0.0,153000,17256.41016,0,0,COMMERCIAL ST,BOSTON,MA,2116,72882.0,42.22226277,-70.96649852,,66.0,36.0,Some Transit,"3 nearby routes: 2 bus, 1 rail, 0 other",,51.0
3663,532911,F_806542_2909503,972,972,336,Weymouth,,1158400.0,0.0,0.0,1158400,1452410.4419999998,0,0,COMMERCIAL ST,BOSTON,MA,2116,,,,,54.66350710900474,40.28776978417266,,,,47.475638446588704
3675,533326,F_812742_2905131,972,972,336,Weymouth,4th Norfolk District,611600.0,0.0,157100.0,768700,114461.3867,0,1580,COMMERCIAL ST,ARLINGTON,MA,2474,93496.0,42.21836988,-70.92196794,,49.0,32.0,Some Transit,"2 nearby routes: 1 bus, 1 rail, 0 other",,40.5
3687,536016,F_812788_2905400,972,972,336,Weymouth,4th Norfolk District,196800.0,0.0,25400.0,222200,20160.74424,0,16,WHARF ST NORTH,ARLINGTON,MA,2474,93496.0,42.21910718,-70.92179139,17.0,49.0,32.0,Some Transit,"2 nearby routes: 1 bus, 1 rail, 0 other",94.44444444444444,40.5
3691,541101,F_812855_2905245,972,972,336,Weymouth,4th Norfolk District,181800.0,0.0,0.0,181800,10655.8283,0,1598,COMMERCIAL ST,ARLINGTON,MA,2474,93496.0,42.218680600000006,-70.92154793,19.0,49.0,32.0,Some Transit,"2 nearby routes: 1 bus, 1 rail, 0 other",105.55555555555556,40.5
3679,533577,F_812296_2905472,972,972,336,Weymouth,4th Norfolk District,14600.0,0.0,0.0,14600,67106.00476,0,0,STATION ST,BOSTON,MA,2116,93496.0,42.21931389,-70.92360589,,42.0,32.0,Some Transit,"2 nearby routes: 1 bus, 1 rail, 0 other",,37.0
3664,532926,F_802219_2888296,972,972,336,Weymouth,,0.0,0.0,0.0,0,1065155.4409999999,0,0,POND ST,BOSTON,MA,2116,,42.17236226,-70.9612074,3.0,49.0,22.0,Minimal Transit,"1 nearby routes: 1 bus, 0 rail, 0 other",16.666666666666664,35.5
3669,533145,F_804204_2881878,972,972,336,Weymouth,3rd Norfolk District,1116100.0,0.0,0.0,1116100,208846.2799,0,0,MAIN ST,QUINCY,MA,2169,100245.0,42.15471598,-70.95403641,1.0,42.0,24.0,Minimal Transit,"1 nearby routes: 0 bus, 1 rail, 0 other",5.555555555555555,33.0
3683,533921,F_811210_2906299,972,972,336,Weymouth,4th Norfolk District,8100.0,0.0,0.0,8100,43642.81683,0,0,EAST ST,BOSTON,MA,2116,93496.0,42.2216033,-70.92759454,15.0,33.0,30.0,Some Transit,"2 nearby routes: 1 bus, 1 rail, 0 other",83.33333333333334,31.5
3692,547357,F_806793_2909459,972,972,336,Weymouth,4th Norfolk District,1500.0,0.0,0.0,1500,5623.001652,0,0,GREEN ST,BOSTON,MA,2116,93496.0,42.23035474,-70.94382516,20.0,33.0,28.0,Some Transit,"1 nearby routes: 1 bus, 0 rail, 0 other",111.11111111111111,30.5
3668,533108,F_812511_2905790,972,972,336,Weymouth,4th Norfolk District,115700.0,0.0,0.0,115700,242891.8039,0,0,WHARF ST NORTH,ARLINGTON,MA,2474,93496.0,42.22018251,-70.92280424,16.0,29.0,31.0,Some Transit,"2 nearby routes: 1 bus, 1 rail, 0 other",88.88888888888889,30.0
3671,533173,F_814186_2906493,972,972,336,Weymouth,4th Norfolk District,477200.0,0.0,0.0,477200,189775.2155,0,0,COMMERCIAL ST,BOSTON,MA,2116,93496.0,42.22208032,-70.91660287,3.0,27.0,30.0,Some Transit,"2 nearby routes: 1 bus, 1 rail, 0 other",16.666666666666664,28.5
3694,549401,F_810735_2906551,972,972,336,Weymouth,4th Norfolk District,600.0,0.0,0.0,600,2150.2125309999997,0,0,COMMERCIAL ST,BOSTON,MA,0,93496.0,42.22230354,-70.92934192,20.0,12.0,30.0,Some Transit,"2 nearby routes: 1 bus, 1 rail, 0 other",111.11111111111111,21.0
2729,370402,F_576974_2920623,390,975,348,Worcester,15th Worcester District,527400.0,100800.0,387200.0,1015400,65626.32516000001,1896,45,SHREWSBURY ST,BOSTON,MA,2116,20030.0,42.26196498,-71.79255653,,92.0,58.0,Good Transit,"31 nearby routes: 30 bus, 1 rail, 0 other",,75.0
2731,370533,F_577251_2920741,972,972,348,Worcester,15th Worcester District,216700.0,0.0,23600.0,240300,36464.67141,0,47,SHREWSBURY ST,BOSTON,MA,2116,20030.0,42.26229139,-71.79153473,,91.0,58.0,Good Transit,"31 nearby routes: 30 bus, 1 rail, 0 other",,74.5
2714,366188,F_575748_2923188,972,972,348,Worcester,15th Worcester District,125800.0,0.0,0.0,125800,11569.447540000001,0,89,SCHOOL ST,NORTH BILLERICA,MA,1862,31726.0,42.26899195,-71.79711864,,83.0,40.28776978417266,,,,61.643884892086334
2741,380074,F_572035_2915706,972,972,348,Worcester,16th Worcester District,412200.0,0.0,0.0,412200,23010.67824,0,10,SOUTHGATE PL,WORCESTER,MA,1610,37250.0,42.24842433,-71.81073604,,79.0,39.0,Some Transit,"12 nearby routes: 12 bus, 0 rail, 0 other",,59.0
2792,392091,F_573444_2916116,972,972,348,Worcester,,1283400.0,18158900.0,235300.0,19677600,473638.6313,154465,42,QUINSIGAMOND AVE,WORCESTER,MA,1605,37250.0,42.24956338,-71.80553744,,70.0,41.0,Some Transit,"30 nearby routes: 30 bus, 0 rail, 0 other",,55.5
2767,389324,F_575599_2925521,972,972,348,Worcester,13th Worcester District,85300.0,0.0,0.0,85300,49080.07449,0,33,GARDEN ST,NORTH BILLERICA,MA,01862 1690,41089.0,42.27539248,-71.79769922,,63.0,40.28776978417266,,,,51.643884892086334
2788,391407,F_556820_2924073,972,972,348,Worcester,,1943100.0,0.0,0.0,1943100,3672393.247,0,0,AIRPORT DR,EAST BOSTON,MA,02128 2909,,,,,54.66350710900474,40.28776978417266,,,,47.475638446588704
2747,384926,F_569996_2911823,972,972,348,Worcester,,82000.0,0.0,0.0,82000,11401.11096,0,0,SOUTHBRIDGE ST,WORCESTER,MA,1610,,42.23774836,-71.81821341,,47.0,27.0,Some Transit,"6 nearby routes: 6 bus, 0 rail, 0 other",,37.0
2709,363507,F_555209_2924747,972,972,348,Worcester,13th Worcester District,0.0,1490500.0,0.0,1490500,20800.04063,45900,275,AIRPORT DR,EAST BOSTON,MA,2128,65769.0,42.27304857,-71.87302733,3.0,5.0,40.28776978417266,,,16.666666666666664,22.64388489208633
2736,371603,F_558777_2921903,972,972,348,Worcester,17th Worcester District,2211100.0,0.0,0.0,2211100,2419410.0209999997,0,0,AIRPORT DR,EAST BOSTON,MA,02128 2909,68846.0,42.26528647,-71.8597998,,4.0,40.28776978417266,,,,22.14388489208633
2759,389303,F_557731_2919927,972,972,348,Worcester,17th Worcester District,424900.0,0.0,0.0,424900,519939.4189,0,162,GODDARD MEMORIAL DR,EAST BOSTON,MA,02128 2909,68846.0,42.25985198,-71.86363301,9.0,0.0,40.28776978417266,,,50.0,20.14388489208633
