"index","mapc_id","parloc_id","luc_adj_1","luc_adj_2","muni_id","muni","District","land_value","bldg_value","othr_value","total_value","lot_areaft","bldg_area","addr_num","addr_str","owner_city","owner_stat","owner_zip","median_hh_income","latitude","longitude","numTransitStops","walkscore","transitscore","transit_score_description","transit_score_summary"
123,12589,"M_137001_924762",970,970,15,"Athol","2nd Franklin District",32200,443500,0,475700,85636.84005,2451,"881","PARTRIDGEVILLE RD","ATHOL,","MA","1331",54625,42.57086727,-72.26730901,4,5,,,
125,12835,"M_139156_926965",973,973,15,"Athol","2nd Franklin District",800,0,900,1700,444.4986058,0,"","BICKFORD DR","ATHOL","MA","1331",60469,42.59087005,-72.24129628,1,37,,,
126,12837,"M_139135_926988",973,973,15,"Athol","2nd Franklin District",800,0,900,1700,429.3523451,0,"","BICKFORD DR","ATHOL","MA","1331",60469,42.59107545,-72.24155456,1,37,,,
127,12857,"M_139222_926961",970,970,15,"Athol","2nd Franklin District",215400,789100,32600,1037100,121400.2325,3500,"","BICKFORD DR","ATHOL","MA","1331",60469,42.5908392,-72.24049178,3,33,,,
133,14327,"M_141021_927092",973,973,15,"Athol","2nd Franklin District",1600,0,0,1600,1000.462971,0,"","LIBERTY ST","ATHOL","MA","1331",50732,42.59215697,-72.21858808,5,40,,,
134,14329,"M_141037_927097",970,970,15,"Athol","2nd Franklin District",23300,113200,300,136800,7398.643126,5030,"59","PARK ST","ATHOL","MA","1331",50732,42.59220319,-72.21839366,5,40,,,
135,14367,"M_141372_927067",970,970,15,"Athol","2nd Franklin District",24800,126400,0,151200,15608.95263,4282,"103","KENNEBUNK ST","ATHOL","MA","1331",50732,42.59195846,-72.21430921,6,37,,,
136,14989,"M_141800_926121",970,970,15,"Athol","2nd Franklin District",108300,350200,400,458900,117694.0943,4596,"","GIBSON DR","ATHOL,","MA","1331",50732,42.58347477,-72.20899901,6,28,,,
137,14991,"M_141905_926103",970,970,15,"Athol","2nd Franklin District",132900,446600,15000,594500,42370.71447,4596,"","GIBSON DR","ATHOL","MA","1331",50732,42.58332059,-72.20771812,6,30,,,
139,15023,"M_141894_926049",970,970,15,"Athol","2nd Franklin District",99800,365900,9700,475400,36754.24045,1952,"","GIBSON DR","ATHOL","MA","1331",50732,42.58283366,-72.20784666,6,28,,,
140,15024,"M_141984_926034",973,973,15,"Athol","2nd Franklin District",800,0,400,1200,788.4873712,0,"","GIBSON DR","ATHOL","MA","1331",50732,42.58270535,-72.20674882,6,28,,,
155,18745,"M_171222_884851",970,970,17,"Auburn","7th Worcester District",638200,3455200,21100,4114500,459417.2379,4493,"200","OXFORD ST N","AUBURN","MA","1501",89830,42.21358219,-71.84852862,7,27,,,
156,18791,"M_171171_885007",970,970,17,"Auburn","7th Worcester District",222400,742600,23000,988000,184041.7957,2746,"","OXFORD ST N","AUBURN","MA","1501",89830,42.21498477,-71.84915401,7,30,,,
157,18973,"M_173346_884669",970,970,17,"Auburn","7th Worcester District",180000,2173600,20000,2373600,89291.11875,8039,"277","PAKACHOAG ST","AUBURN","MA","1501",84201,42.2120189,-71.8227969,3,7,,,
158,18974,"M_173301_884772",970,970,17,"Auburn","7th Worcester District",162000,1327300,0,1489300,75535.86199,6016,"275","PAKACHOAG ST","AUBURN","MA","1501",84201,42.21294467,-71.8233466,3,12,,,
161,19595,"M_173253_884706",970,970,17,"Auburn","7th Worcester District",144000,1346300,0,1490300,73830.21197,5402,"279","PAKACHOAG ST","AUBURN","MA","1501",84201,42.21234883,-71.82392488,3,23,,,
229,24168,"M_150332_909035",973,973,21,"Barre","5th Worcester District",43400,0,0,43400,275686.5492,0,"","RUGGLES LANE","BARRE","MA","1005",68139,42.43025434,-72.1035921,,15,,,
230,24262,"M_150201_909025",970,970,21,"Barre","5th Worcester District",203500,1627500,1000,1832000,215691.0217,8432,"146","RUGGLES LANE","BARRE","MA","1005",68139,42.43015596,-72.10518317,,16,,,
231,24289,"M_150195_908945",973,973,21,"Barre","5th Worcester District",37500,0,0,37500,114732.7331,0,"","RUGGLES LANE","BARRE","MA","1005",68139,42.42943539,-72.10524918,,23,,,
254,25541,"M_150743_903886",970,970,21,"Barre","5th Worcester District",126800,533800,4200,664800,100308.2645,18122,"39","MAIN STREET","BARRE","MA","1005",68139,42.38392674,-72.09815877,,18,,,
278,30393,"M_72087_892191",973,973,22,"Becket","4th Berkshire District",36400,0,0,36400,542005.5545,0,"0","MAIN STREET","PITTSFIELD","MA","1201",75852,42.26972575,-73.05060062,,7,0,"No Nearby Transit","0 nearby routes: 0 bus, 0 rail, 0 other"
284,33070,"M_124335_893265",970,970,24,"Belchertown","2nd Franklin District",187400,692000,1700,881100,156445.9068,9812,"95","GEORGE HANNUM ST","BELCHERTOWN","MA","1007",86169,42.28619908,-72.41744007,,32,,,
288,33604,"M_125817_892521",970,970,24,"Belchertown","2nd Franklin District",65300,251800,1700,318800,97746.91618,3946,"68","EAST WALNUT ST","BELCHERTOWN","MA","1007",86169,42.27964337,-72.39937701,4,40,,,
290,33680,"M_126083_892029",970,970,24,"Belchertown","7th Hampden District",199900,1418600,29900,1648400,313175.6604,28758,"41","EVERETT AV","BELCHERTOWN","MA","1007",86169,42.27523938,-72.39608967,2,33,,,
298,34153,"M_124811_891516",970,970,24,"Belchertown","7th Hampden District",115900,709600,2100,827600,189167.0614,9954,"45","STATE ST","BELCHERTOWN","MA","1007",86169,42.27049979,-72.4114424,,42,,,
399,40638,"F_645792_2832399",970,970,32,"Blackstone","8th Worcester District",143700,2522900,15000,2681600,192489.5007,7200,"","AUSTIN ST","BLACKSTONE","MA","1504",78063,42.02023002,-71.53818074,,51,,,
481,55637,"F_356028_2878926",970,970,61,"Chicopee","6th Hampden District",30000,362900,0,392900,11045.81534,4276,"106","STONINA DR","CHICOPEE","MA","1013",48125,42.14257191,-72.60672701,,73,38,"Some Transit","2 nearby routes: 2 bus, 0 rail, 0 other"
482,55659,"F_356083_2878980",973,973,61,"Chicopee","6th Hampden District",4200,0,0,4200,10673.58379,0,"0","STONINA DR","CHICOPEE","MA","01013-1896",48125,42.14272204,-72.60652681,,73,38,"Some Transit","2 nearby routes: 2 bus, 0 rail, 0 other"
483,55682,"F_356147_2879035",973,973,61,"Chicopee","6th Hampden District",3400,0,0,3400,7822.863775,0,"0","NONOTUCK AVE","CHICOPEE","MA","01013-1896",48125,42.14287523,-72.60629348,,73,38,"Some Transit","2 nearby routes: 2 bus, 0 rail, 0 other"
485,57283,"F_356425_2881013",970,970,61,"Chicopee","8th Hampden District",40300,186700,5700,232700,5984.401158,8617,"296","FRONT ST","CHICOPEE","MA","1013",27285,42.14831263,-72.60536301,20,82,38,"Some Transit","2 nearby routes: 2 bus, 0 rail, 0 other"
491,58733,"F_362502_2883120",970,970,61,"Chicopee","8th Hampden District",35500,237200,0,272700,5403.520353,7526,"25","PINE ST","CHICOPEE","MA","1013",41481,42.15430803,-72.58305383,,55,40,"Some Transit","2 nearby routes: 2 bus, 0 rail, 0 other"
505,62132,"F_351260_2887923",973,973,61,"Chicopee","8th Hampden District",98200,0,0,98200,175114.1206,0,"312","CHICOPEE ST","CHICOPEE","MA","01013-1830",35133,42.16708788,-72.62474388,,34,34,"Some Transit","6 nearby routes: 6 bus, 0 rail, 0 other"
506,62446,"F_352832_2888443",970,970,61,"Chicopee","6th Hampden District",2542300,16130300,12561500,31234100,1296767.861,14422,"0","MEETINGHOUSE RD","CHICOPEE","MA","",35133,42.16857145,-72.6189709,,35,29,"Some Transit","4 nearby routes: 4 bus, 0 rail, 0 other"
514,66748,"F_354735_2894113",970,970,61,"Chicopee","8th Hampden District",131300,2599900,3657600,6388800,36000.13005,56378,"620","CHICOPEE ST","CHICOPEE","MA","",32500,42.18419776,-72.61222444,,45,38,"Some Transit","6 nearby routes: 6 bus, 0 rail, 0 other"
515,66780,"F_354888_2894240",973,973,61,"Chicopee","8th Hampden District",44300,0,0,44300,7295.455167,0,"0","CHICOPEE ST","CHICOPEE","MA","01013-1896",32500,42.18455171,-72.61166607,,45,38,"Some Transit","6 nearby routes: 6 bus, 0 rail, 0 other"
523,69926,"F_365153_2903311",973,973,61,"Chicopee","8th Hampden District",2500,0,3000,5500,4649.864378,0,"50","BEAUDRY AVE","CHICOPEE","MA","",55185,42.20980271,-72.57421558,3,58,31,"Some Transit","1 nearby routes: 1 bus, 0 rail, 0 other"
530,75842,"F_810097_2679686",970,970,72,"Dartmouth","9th Bristol District",970300,0,2814900,3785200,261175.8845,0,"","SOL-E-MAR ST","N DARTMOUTH","MA","2747",84550,41.59975886,-70.93722348,6,37,,,
536,81437,"F_798033_2695251",970,970,72,"Dartmouth","9th Bristol District",54200,0,0,54200,12856.76128,0,"","KINGSTON ST","N DARTMOUTH","MA","2747",72672,41.64268265,-70.98098263,7,48,,,
537,81670,"F_797728_2695077",970,970,72,"Dartmouth","9th Bristol District",1639700,0,3639900,5279600,526296.3992,0,"1","ANDERSON WY","N DARTMOUTH","MA","2747",72672,41.64221024,-70.98210231,7,51,,,
706,90311,"M_258805_931669",970,970,92,"Essex","5th Essex District",601200,1008500,45700,1655400,103931.2675,22080,"1","CHEBACCO TERRACE","ESSEX","MA","1929",113469,42.6333717,-70.78306309,5,53,,,
760,96560,"F_616184_2886887",102,970,110,"Grafton","9th Worcester District",0,63749500,0,63749500,3018921.43,831776,"99","VIOLET LANE","S GRAFTON","MA","1560",,42.16966674,-71.6474904,,8,,,
766,96841,"F_599610_2889104",970,970,110,"Grafton","9th Worcester District",285100,1184000,0,1469100,72890.92386,20976,"4","MESSIER STREET","N GRAFTON","MA","01536-0456",84444,42.17565556,-71.70864934,,28,,,
775,98726,"F_604229_2899454",970,970,110,"Grafton","9th Worcester District",861300,809200,3000,1670500,352004.8907,14032,"71","PROVIDENCE ROAD","N GRAFTON","MA","01536-0456",123178,42.20408714,-71.69169476,1,44,,,
783,99560,"F_604359_2904244",970,970,110,"Grafton","9th Worcester District",2199800,2994400,16900,5194200,437113.0772,55272,"0","FOREST LANE","N GRAFTON","MA","01536-0456",123178,42.21723232,-71.69125459,2,43,,,
785,99747,"F_602339_2905702",970,970,110,"Grafton","9th Worcester District",1351200,1254600,2000,2605800,103831.561,21990,"1","SNOW ROAD","N GRAFTON","MA","01536-0456",123178,42.22122058,-71.69872419,1,47,,,
948,105369,"M_109921_925651",970,970,114,"Greenfield","2nd Berkshire District",34100,126500,400,161000,12445.88786,7024,"317","DEERFIELD","GREENFIELD","MA","1301",,42.57620538,-72.59724369,,34,,,
950,105712,"M_110132_925379",102,970,114,"Greenfield","2nd Berkshire District",0,5019700,0,5019700,521585.0638,77538,"97","BRIAR","GREENFIELD","MA","1301",,42.57378136,-72.59463128,,14,,,
951,105729,"M_109926_925673",970,970,114,"Greenfield","2nd Berkshire District",33600,32700,0,66300,9602.504025,2222,"315","DEERFIELD","GREENFIELD","MA","1301",,42.57640399,-72.59718624,,34,,,
953,106426,"M_109468_926686",970,970,114,"Greenfield","2nd Berkshire District",33900,114000,8300,156200,10866.08517,4284,"23","MILL","GREENFIELD","MA","1301",,42.58546936,-72.60292403,11,81,,,
959,106707,"M_110012_926818",970,970,114,"Greenfield","2nd Berkshire District",115100,706100,6300,827500,30514.18306,16519,"491","MAIN","GREENFIELD","MA","1301",,42.58672069,-72.59631805,12,81,,,
961,107268,"M_108674_927204",970,970,114,"Greenfield","2nd Berkshire District",36300,111900,0,148200,15604.79188,2507,"76","PHILLIPS","GREENFIELD","MA","1301",,42.5900393,-72.61267832,14,63,,,
962,107272,"M_110281_927214",970,970,114,"Greenfield","2nd Berkshire District",48700,190800,200,239700,12510.21191,5156,"16","GEORGE","GREENFIELD","MA","1301",,42.59031637,-72.59310302,13,62,,,
963,107393,"M_109195_927342",970,970,114,"Greenfield","2nd Berkshire District",98000,538000,0,636000,41376.48993,10272,"111","WELLS","GREENFIELD","MA","1301",,42.59134251,-72.60635319,15,85,,,
964,107426,"M_108858_927411",970,970,114,"Greenfield","2nd Berkshire District",35300,127700,100,163100,20989.70716,2960,"87","ELM","GREENFIELD","MA","1301",,42.59192419,-72.61046963,10,57,,,
965,107639,"M_108780_927441",970,970,114,"Greenfield","2nd Berkshire District",33600,94900,400,128900,8861.431541,3548,"94","ELM","GREENFIELD","MA","1301",,42.59218509,-72.61142463,11,57,,,
966,107651,"M_108857_927437",970,970,114,"Greenfield","2nd Berkshire District",35600,127700,100,163400,23126.88901,2960,"89","ELM","GREENFIELD","MA","1301",,42.59215811,-72.61048593,8,57,,,
967,107817,"M_109161_927629",970,970,114,"Greenfield","2nd Berkshire District",35300,110400,200,145900,9077.742284,3222,"9","GROVE","GREENFIELD","MA","1301",,42.59392197,-72.60681277,10,71,,,
968,107825,"M_109096_927620",970,970,114,"Greenfield","2nd Berkshire District",33800,108100,0,141900,10980.63805,3298,"159","CONWAY","GREENFIELD","MA","1301",,42.59383336,-72.60760324,9,71,,,
969,107858,"M_108865_927792",970,970,114,"Greenfield","2nd Berkshire District",1035500,3346800,24800,4407100,247570.8488,77182,"1","ELM","GREENFIELD","MA","1301",,42.59535457,-72.61044478,6,52,,,
971,108371,"M_109733_927985",970,970,114,"Greenfield","2nd Berkshire District",36400,107000,4600,148000,6931.660109,3133,"37","WOODLEIGH","GREENFIELD","MA","1301",,42.5971931,-72.59990003,7,74,,,
972,108520,"M_109838_928000",970,970,114,"Greenfield","2nd Berkshire District",36600,103800,100,140500,7796.115088,2636,"24","PIERCE","GREENFIELD","MA","1301",,42.5973403,-72.59862311,7,75,,,
974,108854,"M_108842_928521",970,970,114,"Greenfield","2nd Berkshire District",99500,134500,0,234000,42548.99516,2568,"300","CONWAY","GREENFIELD","MA","1301",,42.60191394,-72.61084067,6,45,,,
977,109194,"M_108992_928484",970,970,114,"Greenfield","2nd Berkshire District",74300,148100,300,222700,13345.40859,3584,"27","SPRUCE","GREENFIELD","MA","1301",,42.60159846,-72.60900713,8,44,,,
978,109251,"M_108833_928581",970,970,114,"Greenfield","2nd Berkshire District",33000,96100,200,129300,4918.849653,2520,"279","ELM","GREENFIELD","MA","1301",,42.60245298,-72.61095985,6,39,,,
979,109368,"M_108580_928498",970,970,114,"Greenfield","2nd Berkshire District",985000,3424000,1700,4410700,821711.8395,86665,"","OAK","GREENFIELD","MA","1301",,42.60167615,-72.61402935,6,8,,,
996,112849,"M_250601_930371",970,970,119,"Hamilton","4th Essex District",181400,586100,0,767500,16628.41296,3720,"","CENTRAL/HARRIS AV","SOUTH HAMILTON","MA","1982",91382,42.62226467,-70.88319502,,18,,,
997,113435,"M_251129_929247",970,970,119,"Hamilton","4th Essex District",210900,326400,16700,554000,22856.90147,4069,"121-129","RAILOAD AV","SOUTH HAMILTON","MA","1982",91382,42.61211195,-70.87685924,2,69,,,
998,113444,"M_251090_929308",970,970,119,"Hamilton","4th Essex District",227600,1690700,1900,1920200,59006.72127,1282,"121","RAILROAD AV","SOUTH HAMILTON","MA","1982",91382,42.61266363,-70.87732911,2,68,,,
1211,122162,"F_661848_3023774",970,970,158,"Littleton","2nd Middlesex District",523200,692000,18800,1234000,142277.151,9662,"26","SHATTUCK ST","LITTLETON","MA","1460",113581,42.54538447,-71.47891754,5,47,,,
1217,123991,"F_656494_3021786",970,970,158,"Littleton","2nd Middlesex District",135700,142300,0,278000,14134.85412,1496,"143","KING ST","LITTLETON","MA","1460",124742,42.53993146,-71.49878543,,15,,,
1218,124086,"F_652850_3019495",970,970,158,"Littleton","2nd Middlesex District",218900,139600,273100,631600,381265.8973,1079,"76","WHITCOMB AV","LITTLETON","MA","1460",124742,42.53364446,-71.5123053,,18,,,
1224,124225,"F_651981_3023288",970,970,158,"Littleton","2nd Middlesex District",251200,,,260000,734006.1128,0,"200","NEW ESTATE RD","LITTLETON","MA","1460",124742,42.5440518,-71.51553197,,9,,,
1232,129209,"F_857760_3040644",970,970,166,"Manchester","4th Essex District",504000,615400,0,1119400,137333.7779,5361,"2","LOADING PLACE RD","MANCHESTER","MA","1944",124025,42.58924871,-70.75139108,,15,,,
1241,131262,"F_853172_3035314",970,970,166,"Manchester","4th Essex District",490300,1210100,0,1700400,16810.22732,15660,"12","SUMMER ST","MANCHESTER","MA","1944",124025,42.57473351,-70.76859731,1,68,,,
1246,131798,"F_734754_2834279",970,970,167,"Mansfield","1st Bristol District",133200,140600,0,273800,6867.142252,2160,"48","EDDY ST","MANSFIELD","MA","2048",133910,42.02502986,-71.21076134,,56,,,
1247,131851,"F_739817_2839311",970,970,167,"Mansfield","1st Bristol District",149900,231700,0,381600,38492.59139,3406,"74-76","PINE NEEDLE LN","MANSFIELD","MA","2048",119063,42.03879,-71.19206039,,17,,,
1261,133934,"F_734568_2835775",970,970,167,"Mansfield","1st Bristol District",135200,148900,2100,286200,7695.511451,1900,"45","BROOK ST","MANSFIELD","MA","2048",89660,42.02913691,-71.21142727,3,58,,,
1263,134365,"F_733393_2834565",970,970,167,"Mansfield","14th Bristol District",840000,2984200,53400,3877600,30772.80433,47325,"15","PARK ST","MANSFIELD","MA","2048",89660,42.02582726,-71.21576692,,64,,,
1265,135435,"F_730266_2834470",970,970,167,"Mansfield","14th Bristol District",138100,142600,300,281000,15820.33495,2568,"253","WEST ST","MANSFIELD","MA","2048",89660,42.02559457,-71.22727694,,48,,,
1266,135550,"F_731638_2834196",970,970,167,"Mansfield","14th Bristol District",129000,175300,0,304300,12648.30061,2568,"41","DEAN ST","MANSFIELD","MA","2048",89660,42.02483051,-71.22223061,,56,,,
1267,135784,"F_734814_2834105",970,970,167,"Mansfield","1st Bristol District",135000,144900,0,279900,7562.048461,2160,"45","EDDY ST","MANSFIELD","MA","2048",133910,42.02455181,-71.21054268,,51,,,
1268,135785,"F_734876_2834117",970,970,167,"Mansfield","1st Bristol District",134800,144200,0,279000,8443.761872,2160,"47","EDDY ST","MANSFIELD","MA","2048",133910,42.02458416,-71.21031435,,51,,,
1269,135786,"F_734957_2834264",970,970,167,"Mansfield","1st Bristol District",134600,142800,0,277400,6527.457715,2160,"53","EDDY ST","MANSFIELD","MA","2048",133910,42.02498681,-71.2100144,,47,,,
1270,135787,"F_734930_2834312",970,970,167,"Mansfield","1st Bristol District",134600,144900,0,279500,6973.747717,2160,"55","EDDY ST","MANSFIELD","MA","2048",133910,42.02511878,-71.21011317,,47,,,
1271,135788,"F_734902_2834363",970,970,167,"Mansfield","1st Bristol District",134600,140600,0,275200,6973.232847,2160,"57","EDDY ST","MANSFIELD","MA","2048",133910,42.02525899,-71.21021558,,47,,,
1274,136334,"F_736982_2823850",970,970,167,"Mansfield","1st Bristol District",113100,71100,0,184200,5469.701585,1728,"10","COLUMBINE RD","MANSFIELD","MA","2048",133910,41.99638957,-71.20269509,,7,,,
1276,137333,"F_734518_2826239",970,970,167,"Mansfield","1st Bristol District",157300,575400,5600,738300,55113.02857,4961,"651","SOUTH MAIN ST","MANSFIELD","MA","2048",133910,42.00296868,-71.21172993,,12,,,
1281,137882,"F_734116_2833479",970,970,167,"Mansfield","1st Bristol District",6e+05,1081900,24500,1706400,122482.4381,6136,"32","WILSON PL","MANSFIELD","MA","2048",133910,42.02284041,-71.21311937,,49,,,
1282,138140,"F_734774_2834231",970,970,167,"Mansfield","1st Bristol District",132600,146400,0,279000,5720.366593,2160,"46","EDDY ST","MANSFIELD","MA","2048",133910,42.02489795,-71.21068833,,56,,,
1283,138141,"F_734727_2834330",970,970,167,"Mansfield","1st Bristol District",133500,140600,0,274100,6879.321657,2160,"50","EDDY ST","MANSFIELD","MA","2048",133910,42.02517006,-71.21086007,,56,,,
1284,138142,"F_734702_2834383",970,970,167,"Mansfield","1st Bristol District",133100,140600,0,273700,7945.628866,2160,"52","EDDY ST","MANSFIELD","MA","2048",133910,42.02531574,-71.21095142,,56,,,
1287,138254,"F_734879_2834415",970,970,167,"Mansfield","1st Bristol District",134200,140600,0,274800,6954.715833,2160,"59","EDDY ST","MANSFIELD","MA","2048",133910,42.02540191,-71.21029958,,56,,,
1288,138257,"F_736227_2838514",970,970,167,"Mansfield","1st Bristol District",1522000,4695900,36200,6254100,861345.8639,9505,"","BICENTENNIAL CT","MANSFIELD","MA","2048",119063,42.03663768,-71.20528619,,23,,,
1302,142418,"F_653661_2874303",970,970,185,"Milford","10th Worcester District",100500,80900,8900,190300,19253.81825,1499,"87","EAST ST EX","MILFORD","MA","1757",82569,42.13522868,-71.50923803,,44,,,
1303,142475,"F_653524_2874342",970,970,185,"Milford","10th Worcester District",134700,328200,11000,473900,71425.19224,4782,"97","BEACH STREET EX","MILFORD","MA","1757",82569,42.13533566,-71.50974315,1,44,,,
1304,143495,"F_654087_2879035",970,970,185,"Milford","10th Worcester District",92700,81000,0,173700,3266.247457,1526,"20","CHURCHILL ST","MILFORD","MA","1757",82569,42.1482142,-71.507669,3,72,,,
1305,143519,"F_654178_2879090",970,970,185,"Milford","10th Worcester District",86400,0,6000,92400,3740.827992,0,"0","CHURCHILL ST","MILFORD","MA","1757",82569,42.14836515,-71.50733345,3,72,,,
1306,143549,"F_653257_2878911",970,970,185,"Milford","10th Worcester District",564500,3061800,44800,3671100,142291.0897,50840,"10","MAHER CT","MILFORD","MA","1757",82569,42.14787368,-71.51072966,5,68,,,
1307,143560,"F_653441_2879169",970,970,185,"Milford","10th Worcester District",98000,252500,0,350500,13451.35163,4996,"6","CEDAR ST","MILFORD","MA","1757",82569,42.14858173,-71.51005125,4,71,,,
1308,143907,"F_645994_2879841",970,970,185,"Milford","10th Worcester District",136400,111700,0,248100,14832.70998,1710,"36","WEST FOUNTAIN ST","MILFORD","MA","1757",98182,42.15042011,-71.53751413,2,22,,,
1309,144020,"F_650566_2879930",970,970,185,"Milford","10th Worcester District",123000,1382200,4000,1509200,70344.12694,20551,"0","PURCHASE ST","MILFORD","MA","1757",82569,42.15066862,-71.52065387,2,51,,,
1310,144082,"F_650902_2880005",970,970,185,"Milford","10th Worcester District",137500,1744800,9800,1892100,81101.43671,24496,"0","SUMNER ST","MILFORD","MA","1757",82569,42.15087465,-71.51941485,2,45,,,
1311,144109,"F_645378_2881530",970,970,185,"Milford","10th Worcester District",132600,118300,200,251100,9668.229937,1600,"37","REDWOOD DR","MILFORD","MA","1757",98182,42.15505424,-71.53978868,2,7,,,
1312,144237,"F_650539_2880210",970,970,185,"Milford","10th Worcester District",126800,280100,2200,409100,9273.45893,4904,"15","VICKI LN","MILFORD","MA","1757",82569,42.15143697,-71.52075369,1,55,,,
1313,144275,"F_650599_2880246",970,970,185,"Milford","10th Worcester District",126900,,,131100,8527.631244,0,"11","VICKI LN","MILFORD","MA","1757",82569,42.1515358,-71.52053246,1,45,,,
1314,144312,"F_650796_2880208",970,970,185,"Milford","10th Worcester District",339800,3460100,11000,3810900,111911.6124,54530,"0","SUMNER ST","MILFORD","MA","1757",82569,42.15143165,-71.51980593,2,45,,,
1315,144558,"F_646164_2880787",970,970,185,"Milford","10th Worcester District",134100,100600,0,234700,17378.46195,1056,"18","PRINCETON DR","MILFORD","MA","1757",98182,42.15301629,-71.53688873,2,18,,,
1316,144963,"F_645258_2881741",970,970,185,"Milford","10th Worcester District",136600,123600,0,260200,14525.42023,1892,"32","REDWOOD DR","MILFORD","MA","1757",98182,42.1556331,-71.54023161,1,14,,,
1317,145045,"F_643473_2882048",970,970,185,"Milford","10th Worcester District",134300,119400,0,253700,11291.97312,1878,"132","HIGHLAND ST","MILFORD","MA","1757",98182,42.15647306,-71.54681539,,10,,,
1318,147676,"F_653605_2874463",970,970,185,"Milford","10th Worcester District",99900,148400,0,248300,14610.00449,4072,"85","EAST ST EX","MILFORD","MA","1757",82569,42.13566773,-71.50944456,1,44,,,
1319,147838,"F_644671_2881567",970,970,185,"Milford","10th Worcester District",128900,112400,0,241300,10843.96314,1710,"24","CORNELL DR","MILFORD","MA","1757",98182,42.15515484,-71.54239617,1,8,,,
1320,147918,"F_648963_2874488",970,970,185,"Milford","10th Worcester District",110800,305000,12000,427800,13768.57456,4532,"1","VINCENCZO RD","MILFORD","MA","1757",71758,42.13573365,-71.52655909,4,72,,,
1321,147945,"F_649017_2874610",970,970,185,"Milford","10th Worcester District",21300,,,21300,8897.189795,0,"0","OLIVER ST","MILFORD","MA","1757",71758,42.13606848,-71.52636014,4,73,,,
1322,148134,"F_651628_2874989",970,970,185,"Milford","10th Worcester District",608000,1095800,6100,1709900,48485.84352,17881,"0","FAIRFIELD CT","MILFORD","MA","1757",56574,42.13711033,-71.51673391,6,72,,,
1323,148464,"F_648910_2875837",970,970,185,"Milford","10th Worcester District",103700,139500,4800,248000,4964.013619,1498,"16","SOUTH HIGH ST","MILFORD","MA","1757",56574,42.13943549,-71.52675606,5,74,,,
1324,148907,"F_648442_2876662",970,970,185,"Milford","10th Worcester District",20600,,,20600,3405.525929,0,"0","WEST MAPLE ST","MILFORD","MA","1757",71758,42.14169901,-71.52848264,3,68,,,
1325,149330,"F_648094_2876827",970,970,185,"Milford","10th Worcester District",1311000,3981700,62300,5355000,313663.9387,62868,"2","LUBY AV","MILFORD","MA","1757",71758,42.14215147,-71.529766,3,58,,,
1385,155025,"F_875809_2813495",970,970,239,"Plymouth","12th Plymouth District",613100,1972200,30700,2616000,242299.13,27538,"84","NICKS ROCK RD","PLYMOUTH","MA","2361",60353,41.96550597,-70.6923574,,22,,,
1386,155148,"F_868567_2802341",970,970,239,"Plymouth","12th Plymouth District",162400,114100,0,276500,33995.3068,1567,"12","WORRALL RD","PLYMOUTH","MA","2361",95726,41.93508313,-70.71936066,,19,,,
1387,155216,"F_885645_2804115",970,970,239,"Plymouth","1st Plymouth District",135500,292700,0,428200,22020.37755,5268,"32","SO POND RD","PLYMOUTH","MA","2361",60290,41.93950502,-70.656533,4,34,,,
1389,155973,"F_881018_2811739",970,970,239,"Plymouth","1st Plymouth District",755100,4879100,21800,5656000,94747.59401,64116,"128","COURT ST","PLYMOUTH","MA","2361",68192,41.96055037,-70.67326726,2,65,,,
1396,156652,"F_884398_2805860",970,970,239,"Plymouth","1st Plymouth District",1060800,2451800,28500,3541100,158250.1703,38432,"103","SOUTH ST","PLYMOUTH","MA","2361",60290,41.94432722,-70.66105308,2,36,,,
1418,160493,"F_910815_2794417",970,970,239,"Plymouth","1st Plymouth District",130000,118100,0,248100,18141.85506,1792,"43","HEATHER DR","PLYMOUTH","MA","2361",99394,41.91217248,-70.56441657,1,21,,,
1419,160795,"F_869973_2802957",970,970,239,"Plymouth","12th Plymouth District",170500,104100,0,274600,20400.02721,1042,"12","HUGHES ST","PLYMOUTH","MA","2361",95726,41.93673808,-70.7141726,1,22,,,
1434,163476,"F_870480_2802768",970,970,239,"Plymouth","12th Plymouth District",170500,103900,0,274400,20357.68223,1044,"20","HUGHES ST","PLYMOUTH","MA","2361",95726,41.93620661,-70.71231568,1,12,,,
1442,165182,"F_869212_2801962",970,970,239,"Plymouth","12th Plymouth District",159600,104500,0,264100,20400.89081,1046,"25","MONTGOMERY DR","PLYMOUTH","MA","2361",95726,41.93402689,-70.717003,,13,,,
1650,182418,"F_763019_3011285",970,970,246,"Reading","30th Middlesex District",287100,239100,400,526600,11786.26038,2695,"505","SUMMER AVE","READING","MA","1867",90811,42.51043623,-71.10370727,,56,,,
1651,182851,"F_764501_3010286",102,970,246,"Reading","",0,42966900,0,42966900,445156.379,151116,"914","GAZEBO CIR","READING","MA","1867",,42.50767603,-71.09822838,,44,,,
1652,182950,"F_763445_3016284",970,970,246,"Reading","30th Middlesex District",250300,439700,0,690000,6243.464765,4570,"17","PLEASANT ST","READING","MA","1867",90811,42.52414763,-71.10204085,14,81,,,
1656,184509,"F_764752_3016637",970,970,246,"Reading","30th Middlesex District",208900,331100,0,540000,11130.82428,2188,"41","WILSON ST","READING","MA","1867",90811,42.5250994,-71.0971863,17,69,,,
1657,184881,"F_761929_3020583",970,970,246,"Reading","20th Middlesex District",344600,845000,800,1190400,41716.90464,7596,"0","WAVERLY RD","READING","MA","1867",142113,42.53596296,-71.10759115,,29,,,
1658,184922,"F_761689_3017324",970,970,246,"Reading","20th Middlesex District",317000,364000,7300,688300,12639.56479,3199,"74","BANCROFT AVE","READING","MA","1867",102634,42.5270236,-71.1085371,7,62,,,
1661,186475,"F_762553_3016822",102,970,246,"Reading","30th Middlesex District",0,2436600,0,2436600,70231.21519,45140,"52","SANBORN ST","READING","MA","1867",102634,42.52563523,-71.10534053,11,73,,,
1662,186794,"F_765336_3017749",102,970,246,"Reading","30th Middlesex District",,500600,,500600,40503.86451,18570,"33","PIERCE ST","READING","MA","1867",90811,42.52814304,-71.09500031,15,51,,,
1670,188169,"F_762981_3011185",970,970,246,"Reading","30th Middlesex District",237200,239100,10100,486400,11970.19889,3002,"173","MAIN ST","READING","MA","1867",90811,42.51016233,-71.10384993,,58,,,
1684,190894,"M_104055_926332",973,973,268,"Shelburne","1st Franklin District",45800,0,0,45800,142666.3596,0,"0","SOUTH SHELBURNE & ZF","TURNERS FALLS","MA","1376",,42.58163394,-72.66880186,,1,,,
1691,191724,"M_98923_929317",970,970,268,"Shelburne","1st Franklin District",194700,2802400,26300,3023400,192594.9695,35280,"0","HIGHLAND AVE.","SHELBURNE","MA","1370",,42.60785284,-72.73183653,4,42,,,
1783,196994,"M_112535_915581",970,970,289,"Sunderland","1st Franklin District",88600,0,0,88600,91251.00278,0,"0","NORTH MAIN ST","TURNERS FALLS","MA","1376",,42.48585661,-72.56387631,,4,,,
1784,196995,"M_112468_915610",970,970,289,"Sunderland","1st Franklin District",83100,0,0,83100,35049.97442,0,"0","NORTH MAIN ST","TURNERS FALLS","MA","1376",,42.48611014,-72.56469558,,4,,,
1829,202729,"F_723553_2879728",970,970,307,"Walpole","12th Norfolk District",544000,1612700,6800,2163500,158268.7404,22048,"","NEPONSET VIEW TERR","WALPOLE","MA","2081",131107,42.14984679,-71.25149874,16,62,,,
1843,205027,"F_724703_2876413",970,970,307,"Walpole","8th Norfolk District",192000,1480800,0,1672800,134490.7459,14142,"31-53","ELLIS ST","WALPOLE","MA","2081",102621,42.14074065,-71.24729412,10,45,,,
1850,205458,"F_725613_2877995",970,970,307,"Walpole","8th Norfolk District",985000,3402800,43400,4431200,191364.1242,39254,"8","DIAMOND POND TERR","WALPOLE","MA","2081",102621,42.14507445,-71.24392129,16,43,,,
1855,205919,"F_723251_2879400",970,970,307,"Walpole","12th Norfolk District",544000,1455600,5400,2005000,61238.57089,20560,"","NEPONSET VIEW TERR","WALPOLE","MA","2081",131107,42.14894912,-71.25261594,14,59,,,
1861,206605,"F_722271_2881406",973,973,307,"Walpole","12th Norfolk District",40100,0,0,40100,17076.41542,0,"","WINTHROP ST","WALPOLE","MA","2081",131107,42.15446163,-71.25620868,3,27,,,
1862,206631,"F_722365_2881461",973,973,307,"Walpole","12th Norfolk District",160600,0,0,160600,14802.32144,0,"","WINTHROP ST","WALPOLE","MA","2081",131107,42.15461182,-71.25586143,4,27,,,
1863,206658,"F_722268_2881534",973,973,307,"Walpole","12th Norfolk District",159900,0,0,159900,14883.32661,0,"34","ALBANY RD","WALPOLE","MA","2081",131107,42.1548129,-71.25621839,3,27,,,
1865,207023,"F_722966_2882332",973,973,307,"Walpole","12th Norfolk District",3200,0,0,3200,1214.094649,0,"","PEMBERTON ST","WALPOLE","MA","2081",131107,42.15699723,-71.25363568,2,40,,,
1866,207116,"F_723054_2882420",970,970,307,"Walpole","12th Norfolk District",226600,569200,0,795800,22220.56635,7083,"146-150","PEMBERTON ST","WALPOLE","MA","2081",131107,42.15723802,-71.25331019,2,40,,,
1900,224258,"F_707052_2936251",970,970,317,"Wellesley","14th Norfolk District",1177000,0,0,1177000,34733.3029,0,"315","Weston Rd","Wellesley","MA","2482",158485,42.30506845,-71.31188973,1,58,,,
1947,225020,"F_725468_2941021",970,970,317,"Wellesley","14th Norfolk District",2163000,0,0,2163000,727907.4899,0,"109","Barton Rd","Wellesley","MA","2482",158561,42.31802605,-71.24375779,1,21,,,
1952,225710,"F_721554_2943219",970,970,317,"Wellesley","14th Norfolk District",608000,1090000,0,1698000,29636.09256,0,"41","River St.","Wellesley","MA","2481",158561,42.32408886,-71.25820672,2,59,,,
1964,230710,"F_710868_2933485",970,970,317,"Wellesley","14th Norfolk District",616000,1800000,0,2416000,19892.11056,0,"50","Linden St.","Wellesley","MA","2482",158485,42.29745437,-71.29780723,3,83,,,
1977,231729,"F_713089_2934479",970,970,317,"Wellesley","14th Norfolk District",847000,3116000,0,3963000,139166.8568,0,"505","Washington St.","Wellesley","MA","2482",176071,42.30016725,-71.2895887,5,82,,,
1985,234123,"M_324143_854006",973,973,318,"Wellfleet","4th Barnstable District",303100,0,0,303100,258782.69,0,"338","OLD KINGS HWY","WELLFLEET","MA","2667",,41.92659962,-70.00321293,,9,,,
1986,234167,"M_324030_853949",970,970,318,"Wellfleet","4th Barnstable District",286700,1329700,0,1616400,218056.8857,2491,"16","FRED BELL WAY","WELLFLEET","MA","2667",,41.92610435,-70.00458713,,11,,,
1987,234329,"M_323683_853625",970,970,318,"Wellfleet","4th Barnstable District",148800,89300,0,238100,74828.42099,624,"2082","STATE HWY RTE 6","WELLFLEET","MA","2667",,41.92324238,-70.0088383,,22,,,
1989,234767,"M_323997_852857",973,973,318,"Wellfleet","4th Barnstable District",286000,0,0,286000,215715.1641,0,"120","PAINE HOLLOW RD","WELLFLEET","MA","2667",,41.91627935,-70.00521563,,13,,,
1994,235605,"M_324735_851457",973,973,318,"Wellfleet","4th Barnstable District",198700,0,0,198700,29976.17534,0,"25","NORTH WESTERN AVE","WELLFLEET","MA","2667",,41.90355975,-69.99661831,,12,,,
1995,235681,"M_325004_851298",973,973,318,"Wellfleet","4th Barnstable District",195200,0,0,195200,12770.45858,0,"25","VIEW ST","WELLFLEET","MA","2667",,41.9020857,-69.99341068,1,8,,,
1996,236362,"M_323979_854004",973,973,318,"Wellfleet","4th Barnstable District",20600,0,0,20600,24241.99409,0,"0","DELPHI PATH","WELLFLEET","MA","2667",,41.9266075,-70.00519029,,11,,,
2002,238241,"F_792731_2836107",970,970,322,"West Bridgewater","10th Plymouth District",1440100,3240600,62500,4743200,395630.2991,29809,"0","MATFIELD ST","W. BRIDGEWATER","MA","2379",81071,42.02930768,-70.99734272,,25,,,
2007,239610,"F_794948_2840678",970,970,322,"West Bridgewater","10th Plymouth District",24700,,,24700,106939.7953,0,"0","BELMONT ST","W. BRIDGEWATER","MA","2379",81071,42.04181508,-70.98908195,,18,,,
2013,241078,"F_314208_2871171",970,970,329,"Westfield","4th Hampden District",70000,136600,0,206600,9785.827485,5355,"6","HIGH ST","WESTFIELD","MA","1085",71509,42.11970046,-72.76048984,7,55,,,
2014,241124,"F_319407_2871637",970,970,329,"Westfield","4th Hampden District",71100,117000,0,188100,12435.22294,3933,"15","FREDERICK ST","WESTFIELD","MA","1085",42934,42.12118834,-72.74135359,7,78,,,
2017,241212,"F_319805_2869700",970,970,329,"Westfield","4th Hampden District",62100,269800,3900,335800,220517.8881,2964,"16","MURPHY CL","WESTFIELD","MA","1085",42934,42.11588931,-72.73978293,6,37,,,
2039,244149,"F_319080_2868657",970,970,329,"Westfield","4th Hampden District",106600,894800,4800,1006200,241178.4773,1600,"1","KASPER DR","WESTFIELD","MA","1085",85306,42.11299849,-72.74239881,4,57,,,
2040,244456,"F_318518_2869513",970,970,329,"Westfield","4th Hampden District",57000,1170200,74700,1301900,116422.0155,53577,"12","ALICE BURKE WY","WESTFIELD","MA","1085",42934,42.11532478,-72.74451591,6,64,,,
2041,244583,"F_317216_2869864",970,970,329,"Westfield","4th Hampden District",69100,154700,0,223800,7085.585563,5995,"9","WORONOCO AV","WESTFIELD","MA","1085",42934,42.11623565,-72.74933312,8,80,,,
2043,244768,"F_320024_2870065",970,970,329,"Westfield","4th Hampden District",63700,1963800,0,2027500,135062.8498,5564,"17","DANEK DR","WESTFIELD","MA","1085",42934,42.11689957,-72.73899538,7,38,,,
2044,244788,"F_316661_2870380",970,970,329,"Westfield","4th Hampden District",68100,117500,0,185600,5323.273757,3713,"8","PEARL ST","WESTFIELD","MA","1085",46066,42.11762917,-72.7514064,9,82,,,
2045,244840,"F_317644_2870448",970,970,329,"Westfield","4th Hampden District",72200,295900,600,368700,16507.9311,7003,"52","BROAD ST","WESTFIELD","MA","1085",42934,42.11785527,-72.74778728,9,90,,,
2047,244874,"F_319039_2870881",970,970,329,"Westfield","4th Hampden District",70500,159200,0,229700,9389.718599,6861,"103","MAIN ST","WESTFIELD","MA","1085",42934,42.11909926,-72.74266932,7,78,,,
2052,245604,"F_319569_2871582",970,970,329,"Westfield","4th Hampden District",70100,120800,3800,194700,9931.020677,4510,"12","FREDERICK ST","WESTFIELD","MA","1085",42934,42.12104389,-72.74075357,7,78,,,
2053,245628,"F_314781_2871623",970,970,329,"Westfield","4th Hampden District",69900,158700,0,228600,9095.724372,5426,"15","CHESTNUT ST","WESTFIELD","MA","1085",46066,42.12096391,-72.7584026,8,62,,,
2054,245813,"F_316071_2871877",973,973,329,"Westfield","4th Hampden District",70000,,,70000,9531.476183,0,"15","KING ST","WESTFIELD","MA","1085",46066,42.12171298,-72.7536619,8,83,,,
2055,245832,"F_316322_2871844",970,970,329,"Westfield","4th Hampden District",94000,344100,15100,453200,40211.88971,17824,"16","WASHINGTON ST","WESTFIELD","MA","1085",46066,42.12163256,-72.75273501,8,83,,,
2056,245853,"F_316148_2871892",973,973,329,"Westfield","4th Hampden District",73200,,,73200,12186.16826,0,"11","KING ST","WESTFIELD","MA","1085",46066,42.12175725,-72.75337892,8,83,,,
2057,246119,"F_319164_2872220",970,970,329,"Westfield","4th Hampden District",54900,118100,5000,178000,6233.517566,3361,"15","DUBOIS ST","WESTFIELD","MA","1085",42934,42.12277832,-72.7422805,7,85,,,
2062,246717,"F_309314_2872689",970,970,329,"Westfield","4th Hampden District",89600,127300,3200,220100,12679.3943,4047,"172","WESTERN AV","WESTFIELD","MA","1085",71509,42.12366578,-72.77861075,2,8,,,
2073,247704,"F_319393_2873718",970,970,329,"Westfield","4th Hampden District",70900,76600,0,147500,11821.25967,2037,"19","HANOVER ST","WESTFIELD","MA","1085",42934,42.1268978,-72.74151684,4,68,,,
2074,247746,"F_317830_2873868",970,970,329,"Westfield","4th Hampden District",79500,474300,0,553800,5915.263444,12592,"306","ELM ST","WESTFIELD","MA","1085",42934,42.12724681,-72.74728611,5,88,,,
2075,247754,"F_317793_2873968",973,973,329,"Westfield","4th Hampden District",69300,,,69300,8252.191131,0,"324","ELM ST","WESTFIELD","MA","1085",42934,42.12751972,-72.74742788,4,88,,,
2079,247908,"F_317607_2874018",970,970,329,"Westfield","4th Hampden District",73600,377000,9200,459800,24447.35235,15296,"10","COWLES CT","WESTFIELD","MA","1085",42934,42.12764944,-72.74811618,3,82,,,
2087,249203,"F_318200_2876556",970,970,329,"Westfield","4th Hampden District",68900,126600,2600,198100,6585.360862,5288,"4","CROWN ST","WESTFIELD","MA","1085",65649,42.1346372,-72.74606704,4,54,,,
2095,250671,"F_321708_2879656",970,970,329,"Westfield","4th Hampden District",109800,1870900,15800,1996500,290925.5037,6164,"50","SOUTHAMPTON RD","WESTFIELD","MA","1085",65649,42.14328313,-72.73330027,3,27,,,
2190,257882,"F_783665_2967100",970,970,57,"Chelsea","2nd Suffolk District",677600,6145700,0,6823300,98041.66112,14976,"170","CENTRAL AV","CHELSEA","MA","2150",57031,42.38890605,-71.02804379,,75,65,"Good Transit","13 nearby routes: 11 bus, 2 rail, 0 other"
2196,259235,"F_781885_2969340",970,970,57,"Chelsea","2nd Suffolk District",271100,533300,0,804400,30257.48198,4488,"230","WALNUT ST","CHELSEA","MA","2150",54800,42.39507943,-71.03458738,,94,62,"Good Transit","10 nearby routes: 9 bus, 1 rail, 0 other"
2199,259749,"F_782506_2970319",973,973,57,"Chelsea","2nd Suffolk District",118100,,,118100,10215.17178,0,"42","EDEN ST","CHELSEA","MA","2150",47366,42.39775647,-71.03226859,,90,62,"Good Transit","9 nearby routes: 8 bus, 1 rail, 0 other"
2200,259895,"F_782135_2970523",970,970,57,"Chelsea","2nd Suffolk District",321500,515800,0,837300,15591.43417,6736,"301","SPRUCE ST","CHELSEA","MA","2150",47366,42.39832182,-71.03363794,,87,61,"Good Transit","9 nearby routes: 8 bus, 1 rail, 0 other"
2201,259906,"F_782494_2970465",970,970,57,"Chelsea","2nd Suffolk District",1995900,14624400,531600,17151900,27451.66118,158868,"14","BLOOMINGDALE ST","CHELSEA","MA","2150",47366,42.39815727,-71.03231005,,90,62,"Good Transit","9 nearby routes: 8 bus, 1 rail, 0 other"
2212,261016,"F_785512_2972017",970,970,57,"Chelsea","2nd Suffolk District",1423300,11642500,626400,13692200,38462.14708,129960,"260","CLARK AV","CHELSEA","MA","2150",59671,42.40236999,-71.02110476,,70,53,"Good Transit","8 nearby routes: 8 bus, 0 rail, 0 other"
2213,261044,"F_787623_2971924",970,970,57,"Chelsea","16th Suffolk District",871900,5138400,10800,6021100,223480.0683,19379,"112","CLINTON ST","CHELSEA","MA","2150",51326,42.40208201,-71.01329101,,50,48,"Some Transit","9 nearby routes: 9 bus, 0 rail, 0 other"
2214,261243,"F_783883_2972726",970,970,57,"Chelsea","2nd Suffolk District",718700,3874300,66400,4659400,225727.5872,5011,"54","LOCKE ST","CHELSEA","MA","2150",59671,42.40434041,-71.02712138,,57,55,"Good Transit","7 nearby routes: 7 bus, 0 rail, 0 other"
2215,261523,"F_783421_2973563",970,970,57,"Chelsea","16th Suffolk District",130600,582300,0,712900,30059.24415,4076,"","BURMA RD","CHELSEA","MA","2150",62960,42.40664414,-71.02881482,,62,55,"Good Transit","7 nearby routes: 7 bus, 0 rail, 0 other"
2216,261554,"F_783550_2973683",970,970,57,"Chelsea","16th Suffolk District",213600,6493200,0,6706800,45387.12189,5272,"44","EXETER ST","CHELSEA","MA","2150",62960,42.40697146,-71.02833472,,57,55,"Good Transit","7 nearby routes: 7 bus, 0 rail, 0 other"
2217,261749,"F_783263_2974528",970,970,57,"Chelsea","16th Suffolk District",187700,659900,0,847600,25129.77968,6520,"","WASHINGTON AV","CHELSEA","MA","2150",62960,42.40929448,-71.02938012,,57,53,"Good Transit","6 nearby routes: 6 bus, 0 rail, 0 other"
2218,261778,"F_783412_2974336",970,970,57,"Chelsea","16th Suffolk District",2052600,6720900,0,8773500,370557.191,6520,"","WASHINGTON AV","CHELSEA","MA","2150",,42.40876538,-71.02883233,,57,53,"Good Transit","6 nearby routes: 6 bus, 0 rail, 0 other"
2221,264541,"M_165969_865444",973,973,80,"Dudley","6th Worcester District",5300,0,0,5300,53704.65496,0,"","WEST MAIN ST","DUDLEY","MA","1571",77480,42.03864873,-71.91101392,,45,,,
2222,264544,"M_165895_865421",970,970,80,"Dudley","6th Worcester District",395100,1995100,69200,2459400,372062.5027,2822,"","WASHINGTON DR","DUDLEY","MA","1571",77480,42.03843844,-71.91190631,,45,,,
2223,264755,"M_167657_865164",970,970,80,"Dudley","6th Worcester District",66100,235500,11500,313100,49017.39794,3891,"107","SCHOFIELD AVE","STURBRIDGE","MA","1566",77480,42.03619925,-71.89061168,,28,,,
2239,274746,"M_204980_875476",970,970,101,"Franklin","10th Norfolk District",168100,223600,0,391700,5749.142533,1590,"3","DERBY LN","FRANKLIN","MA","2038",128605,42.12969152,-71.43976737,,16,,,
2240,274823,"M_205447_875643",970,970,101,"Franklin","10th Norfolk District",326200,698500,10300,1035000,55901.71082,4719,"21","PLAIN ST","FRANKLIN","MA","2038",128605,42.13119194,-71.43411749,,13,,,
2241,275445,"M_208731_874914",970,970,101,"Franklin","10th Norfolk District",225800,141600,0,367400,16060.78198,1512,"245","DANIELS ST","FRANKLIN","MA","2038",128605,42.12459891,-71.39440783,,5,,,
2242,277869,"M_210186_873152",970,970,101,"Franklin","10th Norfolk District",205500,246600,8700,460800,52187.85181,4647,"192","BROOK ST","FRANKLIN","MA","2038",110184,42.10871774,-71.37684195,,7,,,
2259,280853,"M_208886_870374",970,970,101,"Franklin","10th Norfolk District",170100,70600,600,241300,15836.256,1056,"57","RUGGLES ST","FRANKLIN","MA","2038",86642,42.08372264,-71.39260241,6,74,,,
2260,281377,"M_208499_869919",970,970,101,"Franklin","10th Norfolk District",174400,1438100,12100,1624600,37952.58442,21426,"45","WINTER ST","FRANKLIN","MA","2038",86642,42.07963046,-71.39728637,9,79,,,
2261,281503,"M_208239_870085",970,970,101,"Franklin","10th Norfolk District",196600,284700,4600,485900,9289.640548,6335,"14","WALNUT AV","FRANKLIN","MA","2038",86642,42.08112777,-71.40042622,6,81,,,
2271,282134,"M_208652_869384",970,970,101,"Franklin","10th Norfolk District",737700,3250500,13600,4001800,230397.286,55200,"4","EAST PARK ST","FRANKLIN","MA","2038",86642,42.07481206,-71.39544523,3,48,,,
2272,282146,"M_208554_869317",970,970,101,"Franklin","10th Norfolk District",527500,1595900,19700,2143100,152343.0874,24308,"1000","CENTRAL PARK TERR","FRANKLIN","MA","2038",86642,42.07420991,-71.39663049,3,43,,,
2273,282150,"M_208756_869243",970,970,101,"Franklin","10th Norfolk District",479800,1600600,0,2080400,138337.3361,25780,"0","CENTRAL PARK TERR","FRANKLIN","MA","2038",86642,42.07354144,-71.39419057,3,37,,,
2307,285914,"M_121875_867599",973,973,120,"Hampden","2nd Hampden District",64600,0,0,64600,14814.83061,0,"","SPRINGMEADOW LN","HAMPDEN","MA","1036",85943,42.05489741,-72.44382185,,41,,,
2308,285915,"M_121965_867567",970,970,120,"Hampden","2nd Hampden District",117500,2878300,41500,3037300,399755.1752,6196,"","SPRINGMEADOW LN","HAMPDEN","MA","1036",85943,42.05461828,-72.44273039,,38,,,
2314,288276,"F_359717_2963157",970,970,127,"Hatfield","1st Hampshire District",172700,1916100,3200,2092000,74460.25602,26079,"2","SCHOOL ST","HATFIELD","MA","1038",64619,42.37382251,-72.59712052,,26,,,
2331,293040,"M_203927_880798",970,970,136,"Holliston","8th Middlesex District",132000,81000,0,213000,22459.07319,1226,"11","WEDGEWOOD DR","HOLLISTON","MA","1746",123245,42.17761221,-71.45246743,1,23,,,
2332,293112,"M_203302_883244",973,973,136,"Holliston","8th Middlesex District",4100,,,4100,229276.8922,0,"0","CHAMBERLAIN ST","HOLLISTON","MA","1746",147396,42.19963664,-71.46001858,,4,,,
2339,295963,"M_205690_883529",970,970,136,"Holliston","8th Middlesex District",209300,,,209300,107617.863,0,"59","HOLLIS ST","HOLLISTON","MA","1746",117009,42.20218879,-71.43110132,2,61,,,
2342,297395,"M_206146_884269",970,970,136,"Holliston","8th Middlesex District",347800,5447600,0,5795400,403754.0518,0,"492","WASHINGTON ST","HOLLISTON","MA","1746",117009,42.20884761,-71.42557192,,44,,,
2344,297884,"M_203306_883360",973,973,136,"Holliston","8th Middlesex District",203700,93500,0,297200,55832.82141,0,"0","CHAMBERLAIN ST","HOLLISTON","MA","1746",147396,42.20068098,-71.45996949,,5,,,
2345,297885,"M_203297_883306",973,973,136,"Holliston","8th Middlesex District",204300,57500,0,261800,61621.78791,0,"0","CHAMBERLAIN ST","HOLLISTON","MA","1746",147396,42.20019485,-71.46007877,,4,,,
2376,312465,"F_825811_3004548",970,970,168,"Marblehead","8th Essex District",331500,124700,1900,458100,8584.288711,1748,"33","BROUGHTON RD","MARBLEHEAD","MA","1945",159875,42.49091497,-70.87101614,15,32,29,"Some Transit","2 nearby routes: 2 bus, 0 rail, 0 other"
2377,312491,"F_826046_3004509",970,970,168,"Marblehead","8th Essex District",331500,138900,600,471000,7819.174498,2214,"42","BROUGHTON RD","MARBLEHEAD","MA","1945",159875,42.4908032,-70.87014594,13,32,29,"Some Transit","2 nearby routes: 2 bus, 0 rail, 0 other"
2378,312518,"F_825862_3004480",970,970,168,"Marblehead","8th Essex District",331500,124700,0,456200,7460.429116,1748,"37","BROUGHTON RD","MARBLEHEAD","MA","1945",159875,42.49072735,-70.87082892,15,32,29,"Some Transit","2 nearby routes: 2 bus, 0 rail, 0 other"
2379,312734,"F_830823_3011081",970,970,168,"Marblehead","8th Essex District",1440100,5360100,17400,6817600,124191.3121,67476,"0","FARRELL CT","MARBLEHEAD","MA","1945",92905,42.50873783,-70.8522501,16,71,29,"Some Transit","2 nearby routes: 2 bus, 0 rail, 0 other"
2380,313004,"F_829218_3007575",970,970,168,"Marblehead","8th Essex District",516300,2592700,22100,3131100,26943.33232,30892,"26","ROWLAND ST","MARBLEHEAD","MA","01945-3135",100958,42.49915108,-70.85830018,14,84,29,"Some Transit","2 nearby routes: 2 bus, 0 rail, 0 other"
2381,313319,"F_825558_3005129",970,970,168,"Marblehead","8th Essex District",331500,148000,0,479500,8620.44338,2118,"6","BROUGHTON RD","MARBLEHEAD","MA","1945",159875,42.49251429,-70.87193829,15,39,29,"Some Transit","2 nearby routes: 2 bus, 0 rail, 0 other"
2382,313334,"F_825354_3005105",970,970,168,"Marblehead","8th Essex District",331500,140600,0,472100,12941.32626,2118,"1","BROUGHTON RD","MARBLEHEAD","MA","1945",159875,42.49245255,-70.87269529,15,39,29,"Some Transit","2 nearby routes: 2 bus, 0 rail, 0 other"
2383,313366,"F_825611_3005061",970,970,168,"Marblehead","8th Essex District",331500,148600,500,480600,9019.230381,2118,"10","BROUGHTON RD","MARBLEHEAD","MA","1945",159875,42.49232663,-70.87174364,15,39,29,"Some Transit","2 nearby routes: 2 bus, 0 rail, 0 other"
2384,313388,"F_826143_3004262",970,970,168,"Marblehead","8th Essex District",331500,124700,0,456200,10752.68242,1748,"55","BROUGHTON RD","MARBLEHEAD","MA","1945",159875,42.49012349,-70.86979308,13,32,29,"Some Transit","2 nearby routes: 2 bus, 0 rail, 0 other"
2385,313400,"F_826046_3004242",970,970,168,"Marblehead","8th Essex District",331500,124700,0,456200,7530.912695,1748,"51","BROUGHTON RD","MARBLEHEAD","MA","1945",159875,42.49007058,-70.87015325,13,32,29,"Some Transit","2 nearby routes: 2 bus, 0 rail, 0 other"
2386,313572,"F_830841_3010847",970,970,168,"Marblehead","8th Essex District",4000,,,4000,8022.359836,0,"0","FARRELL CT","MARBLEHEAD","MA","1945",92905,42.50809539,-70.85218994,16,71,29,"Some Transit","2 nearby routes: 2 bus, 0 rail, 0 other"
2387,313622,"F_830778_3010789",970,970,168,"Marblehead","8th Essex District",3300,,,3300,5496.596395,0,"0","FARRELL CT","MARBLEHEAD","MA","1945",92905,42.50793756,-70.85242521,16,71,29,"Some Transit","2 nearby routes: 2 bus, 0 rail, 0 other"
2388,313982,"F_825935_3004646",970,970,168,"Marblehead","8th Essex District",331500,124700,0,456200,8207.789658,1748,"34","BROUGHTON RD","MARBLEHEAD","MA","1945",159875,42.49118136,-70.87055373,13,32,29,"Some Transit","2 nearby routes: 2 bus, 0 rail, 0 other"
2389,314006,"F_825758_3004614",970,970,168,"Marblehead","8th Essex District",331500,133400,500,465400,8896.862979,1748,"29","BROUGHTON RD","MARBLEHEAD","MA","1945",159875,42.49109714,-70.87121084,15,32,29,"Some Transit","2 nearby routes: 2 bus, 0 rail, 0 other"
2390,314018,"F_825912_3004418",970,970,168,"Marblehead","8th Essex District",331500,138900,0,470400,8871.371232,2214,"41","BROUGHTON RD","MARBLEHEAD","MA","1945",159875,42.49055622,-70.87064524,14,32,29,"Some Transit","2 nearby routes: 2 bus, 0 rail, 0 other"
2391,314031,"F_826126_3004402",970,970,168,"Marblehead","8th Essex District",331500,138900,0,470400,8265.612131,2214,"48","BROUGHTON RD","MARBLEHEAD","MA","1945",159875,42.49050798,-70.86985227,13,32,29,"Some Transit","2 nearby routes: 2 bus, 0 rail, 0 other"
2392,314398,"F_825993_3004574",970,970,168,"Marblehead","8th Essex District",331500,124700,0,456200,8909.942623,1748,"38","BROUGHTON RD","MARBLEHEAD","MA","1945",159875,42.49098263,-70.87034066,13,32,29,"Some Transit","2 nearby routes: 2 bus, 0 rail, 0 other"
2393,314721,"F_829457_3010250",903,970,168,"Marblehead","8th Essex District",1585200,3687300,15600,5288100,104480.4968,47953,"0","GREEN ST","MARBLEHEAD","MA","1945",81296,42.50648602,-70.85733923,17,75,29,"Some Transit","2 nearby routes: 2 bus, 0 rail, 0 other"
2394,317358,"F_825504_3005203",970,970,168,"Marblehead","8th Essex District",331500,140600,0,472100,8262.741587,2118,"2","BROUGHTON RD","MARBLEHEAD","MA","1945",159875,42.49271842,-70.87213648,15,39,29,"Some Transit","2 nearby routes: 2 bus, 0 rail, 0 other"
2395,317395,"F_825431_3005032",970,970,168,"Marblehead","8th Essex District",331500,156800,0,488300,8749.190237,2118,"5","BROUGHTON RD","MARBLEHEAD","MA","1945",159875,42.49225069,-70.8724118,15,39,29,"Some Transit","2 nearby routes: 2 bus, 0 rail, 0 other"
2396,317421,"F_825667_3004988",970,970,168,"Marblehead","8th Essex District",331500,148600,0,480100,8523.004287,2118,"14","BROUGHTON RD","MARBLEHEAD","MA","1945",159875,42.49212519,-70.87153801,15,39,29,"Some Transit","2 nearby routes: 2 bus, 0 rail, 0 other"
2397,317438,"F_825483_3004965",970,970,168,"Marblehead","8th Essex District",331500,148600,0,480100,8898.953125,2118,"9","BROUGHTON RD","MARBLEHEAD","MA","1945",159875,42.4920658,-70.87222083,15,39,29,"Some Transit","2 nearby routes: 2 bus, 0 rail, 0 other"
2398,317465,"F_825717_3004924",970,970,168,"Marblehead","8th Essex District",331500,124700,0,456200,8448.701211,1748,"18","BROUGHTON RD","MARBLEHEAD","MA","1945",159875,42.49194857,-70.87135438,15,39,29,"Some Transit","2 nearby routes: 2 bus, 0 rail, 0 other"
2399,317490,"F_825541_3004892",970,970,168,"Marblehead","8th Essex District",331500,148600,0,480100,8782.769982,2118,"13","BROUGHTON RD","MARBLEHEAD","MA","1945",159875,42.49186433,-70.87200778,15,39,29,"Some Transit","2 nearby routes: 2 bus, 0 rail, 0 other"
2400,317512,"F_825773_3004853",970,970,168,"Marblehead","8th Essex District",331500,124700,0,456200,8802.179525,1748,"22","BROUGHTON RD","MARBLEHEAD","MA","1945",159875,42.49175263,-70.87114869,14,32,29,"Some Transit","2 nearby routes: 2 bus, 0 rail, 0 other"
2401,317533,"F_825591_3004826",970,970,168,"Marblehead","8th Essex District",331500,133500,0,465000,8463.573839,1748,"17","BROUGHTON RD","MARBLEHEAD","MA","1945",159875,42.49168222,-70.87182421,15,39,29,"Some Transit","2 nearby routes: 2 bus, 0 rail, 0 other"
2402,317564,"F_825826_3004786",970,970,168,"Marblehead","8th Essex District",331500,124700,500,456700,8911.493256,1748,"26","BROUGHTON RD","MARBLEHEAD","MA","1945",159875,42.49156771,-70.87095402,14,32,29,"Some Transit","2 nearby routes: 2 bus, 0 rail, 0 other"
2403,317600,"F_825648_3004752",970,970,168,"Marblehead","8th Essex District",331500,133500,0,465000,8308.796565,1748,"21","BROUGHTON RD","MARBLEHEAD","MA","1945",159875,42.49147802,-70.8716149,15,39,29,"Some Transit","2 nearby routes: 2 bus, 0 rail, 0 other"
2404,317623,"F_825884_3004712",970,970,168,"Marblehead","8th Essex District",331500,124700,400,456600,8843.59773,1748,"30","BROUGHTON RD","MARBLEHEAD","MA","1945",159875,42.49136349,-70.87074101,13,32,29,"Some Transit","2 nearby routes: 2 bus, 0 rail, 0 other"
2405,317638,"F_825700_3004688",970,970,168,"Marblehead","8th Essex District",331500,133400,0,464900,8825.73099,1748,"25","BROUGHTON RD","MARBLEHEAD","MA","1945",159875,42.49130136,-70.87142385,15,39,29,"Some Transit","2 nearby routes: 2 bus, 0 rail, 0 other"
2406,317694,"F_826194_3004326",970,970,168,"Marblehead","8th Essex District",331500,124700,9100,465300,11430.53058,1748,"52","BROUGHTON RD","MARBLEHEAD","MA","1945",159875,42.49029807,-70.86960224,13,27,28,"Some Transit","2 nearby routes: 2 bus, 0 rail, 0 other"
2407,317718,"F_825999_3004305",970,970,168,"Marblehead","8th Essex District",331500,138900,0,470400,7987.452564,2214,"47","BROUGHTON RD","MARBLEHEAD","MA","1945",159875,42.4902444,-70.87032578,13,32,29,"Some Transit","2 nearby routes: 2 bus, 0 rail, 0 other"
2411,319583,"F_617486_2935843",970,970,215,"Northborough","4th Middlesex District",150400,111900,0,262300,7831.190429,1272,"15","GREENWOOD ROAD","NORTHBOROUGH","MA","1532",108056,42.30401387,-71.64299026,,9,,,
2415,319741,"F_615590_2939431",970,970,215,"Northborough","12th Worcester District",163200,243100,0,406300,31738.91914,2110,"23-25","CRESTWOOD DRIVE","NORTHBOROUGH","MA","1532",126464,42.31385069,-71.65002249,,33,,,
2434,320692,"F_618348_2942022",111,970,215,"Northborough","12th Worcester District",,149600,,149600,78086.81594,25576,"19-Jan","CENTRE DRIVE","NORTHBOROUGH","MA","1532",112000,42.32097345,-71.63984117,,47,,,
2439,321036,"F_615335_2939460",970,970,215,"Northborough","12th Worcester District",156400,212800,0,369200,20652.78125,2109,"18-20","CRESTWOOD DRIVE","NORTHBOROUGH","MA","1532",126464,42.31392904,-71.65096548,,33,,,
2440,321065,"F_625686_2948695",970,970,215,"Northborough","4th Middlesex District",165300,212400,2200,379900,35347.28974,2496,"164-166","BOUNDARY STREET","NORTHBOROUGH","MA","1532",108056,42.33931443,-71.61274028,,10,,,
2442,321174,"F_615465_2935100",970,970,215,"Northborough","4th Middlesex District",155000,112800,0,267800,17099.09028,1272,"96","NORTHGATE ROAD","NORTHBOROUGH","MA","1532",126464,42.30196548,-71.6504564,,14,,,
2447,321468,"F_613582_2932986",970,970,215,"Northborough","4th Middlesex District",167300,196700,0,364000,44180.24861,2352,"8-Jun","OTIS STREET","NORTHBOROUGH","MA","1532",108056,42.29615516,-71.6574026,,19,,,
2450,321631,"F_613595_2932818",970,970,215,"Northborough","4th Middlesex District",166900,194800,1600,363300,40716.53659,2216,"12-Oct","OTIS STREET","NORTHBOROUGH","MA","1532",108056,42.29569422,-71.6573534,,19,,,
2457,322252,"F_618343_2940884",970,970,215,"Northborough","12th Worcester District",707900,4644700,98700,5451300,185449.7593,42270,"Feb-38","VILLAGE DRIVE","NORTHBOROUGH","MA","1532",112000,42.31785067,-71.63985276,,40,,,
2458,322446,"F_615793_2937167",970,970,215,"Northborough","4th Middlesex District",153000,78500,1300,232800,13214.41182,875,"64","BIRCH HILL ROAD","NORTHBOROUGH","MA","1532",126464,42.30763908,-71.6492573,,25,,,
2470,323311,"F_612364_2942018",970,970,215,"Northborough","12th Worcester District",333200,2101600,0,2434800,174278.9158,16704,"24-Feb","RUTLAND ROAD","NORTHBOROUGH","MA","1532",126464,42.32093342,-71.66196799,,9,,,
2475,323803,"F_623246_2944770",970,970,215,"Northborough","4th Middlesex District",161800,457900,7700,627400,31897.02227,4482,"152","EAST MAIN STREET","NORTHBOROUGH","MA","1532",108056,42.32853477,-71.62174449,,40,,,
2477,323963,"F_617139_2933498",970,970,215,"Northborough","4th Middlesex District",170300,132800,0,303100,21144.04219,1464,"28","EMERSON ROAD","NORTHBOROUGH","MA","1532",108056,42.29757739,-71.64425835,,6,,,
2516,329805,"F_684013_2950125",970,970,315,"Wayland","13th Middlesex District",1100,0,0,1100,3595.936971,0,"0","SHORE DR","HADLEY","MA","01035 9589",,42.34324759,-71.39699706,,2,,,
2518,332168,"F_684689_2949621",970,970,315,"Wayland","13th Middlesex District",197500,86100,2300,285900,4724.96033,1980,"28","RIVER VIEW CIR","WAYLAND","MA","1778",170820,42.34186231,-71.39449886,,6,,,
2519,332251,"F_684743_2949194",970,970,315,"Wayland","13th Middlesex District",201100,80900,0,282000,5519.184566,1791,"18","OVERLOOK RD","WAYLAND","MA","1778",170820,42.34069041,-71.39430108,,6,,,
2520,332398,"F_690481_2948258",970,970,315,"Wayland","13th Middlesex District",294800,118600,2500,415900,23688.88541,1770,"304","OLD CONNECTICUT PATH","WAYLAND","MA","10778",170820,42.3381005,-71.37308239,,16,,,
2521,332700,"F_690606_2946799",970,970,315,"Wayland","13th Middlesex District",227700,133100,0,360800,9438.117564,1632,"14","MAYFLOWER PATH","WAYLAND","MA","1778",139010,42.3340964,-71.37262811,,15,,,
2522,332807,"F_690051_2946420",970,970,315,"Wayland","13th Middlesex District",288200,133100,400,421700,23027.95903,1632,"3","HEMLOCK RD","WAYLAND","MA","1778",139010,42.33305865,-71.3746828,,14,,,
2523,332868,"F_689379_2946195",970,970,315,"Wayland","13th Middlesex District",284200,170400,4000,458600,20311.43624,1804,"8","RUSSELL RD","WAYLAND","MA","1778",139010,42.33244392,-71.37716931,,13,,,
2524,333110,"F_689046_2945375",970,970,315,"Wayland","13th Middlesex District",249000,131700,900,381600,15273.70419,1536,"7","SIMPSON RD","WAYLAND","MA","1778",139010,42.33019509,-71.37840518,,13,,,
2525,333166,"F_693155_2945124",970,970,315,"Wayland","13th Middlesex District",210300,140600,0,350900,11116.20722,2546,"268","MAIN ST","WAYLAND","MA","1778",139010,42.32948925,-71.36321073,,21,,,
2526,333198,"F_693136_2945015",970,970,315,"Wayland","13th Middlesex District",145200,222200,0,367400,3128.358334,3054,"264","MAIN ST","WAYLAND","MA","1778",139010,42.32919023,-71.36328164,,26,,,
2527,333343,"F_689138_2944313",970,970,315,"Wayland","13th Middlesex District",262200,88300,0,350500,23264.05618,2868,"199","WEST PLAIN ST","WAYLAND","MA","1778",139010,42.32728053,-71.37807056,,15,,,
2528,333485,"F_689876_2943770",970,970,315,"Wayland","13th Middlesex District",224500,59400,0,283900,14931.95166,1624,"161","WEST PLAIN ST","WAYLAND","MA","1778",139010,42.32578757,-71.37534434,,21,,,
2529,333486,"F_688935_2943830",970,970,315,"Wayland","13th Middlesex District",201200,75100,0,276300,6557.213403,1390,"32","EDGEWOOD RD","WAYLAND","MA","1778",139010,42.32595594,-71.3788238,,12,,,
2530,333538,"F_692698_2943595",970,970,315,"Wayland","13th Middlesex District",242100,289900,2900,534900,25969.08084,3956,"206","MAIN ST","WAYLAND","MA","1778",139010,42.32529557,-71.36490975,,40,,,
2531,333589,"F_692214_2943314",970,970,315,"Wayland","13th Middlesex District",318100,289300,0,607400,31982.79508,1768,"36","MITCHELL ST","WAYLAND","MA","1778",139010,42.32452658,-71.36670117,,43,,,
2532,333773,"F_693287_2942609",970,970,315,"Wayland","13th Middlesex District",235900,185200,0,421100,11594.81013,3647,"21","LEARY ST","WAYLAND","MA","1778",139010,42.32258733,-71.36273754,,49,,,
2533,333785,"F_694875_2942564",970,970,315,"Wayland","13th Middlesex District",208800,104500,0,313300,10434.76375,1216,"104","EAST PLAIN ST","WAYLAND","MA","1778",139010,42.32245669,-71.35686577,,48,,,
2534,334110,"F_693945_2941588",970,970,315,"Wayland","13th Middlesex District",279200,282100,0,561300,30302.9291,3672,"222","COMMONWEALTH RD","WAYLAND","MA","1778",139010,42.3197827,-71.3603106,,53,,,
2535,334126,"F_693132_2941558",970,970,315,"Wayland","13th Middlesex District",225500,175800,0,401300,8467.794702,1982,"14","WILLARD ST","WAYLAND","MA","1778",139010,42.319704,-71.36331692,,57,,,
2536,334282,"F_692618_2940553",970,970,315,"Wayland","13th Middlesex District",210600,195400,0,406000,10719.55727,4146,"132","COMMONWEALTH RD","WAYLAND","MA","1778",139010,42.31694845,-71.36522336,,54,,,
2569,343892,"M_246202_868710",970,970,338,"Whitman","7th Plymouth District",325000,3712300,24900,4062200,223468.1085,52044,"415","HARVARD ST","WHITMAN","MA","2382",91273,42.06743034,-70.94173469,,19,,,
2570,343893,"M_246049_868552",970,970,338,"Whitman","7th Plymouth District",260400,2885600,300,3146300,240939.0089,43758,"159 161","PINE CIR","WHITMAN","MA","2382",91273,42.06601686,-70.94359581,,35,,,
2571,344051,"M_247393_869743",970,970,338,"Whitman","7th Plymouth District",251500,1791100,40700,2083300,194410.6368,19923,"","STETSON TRL","WHITMAN","MA","2382",91250,42.0766594,-70.92726028,1,37,,,
2608,347695,"M_155164_937992",970,970,343,"Winchendon","2nd Worcester District",297100,1869500,0,2166600,310720.4033,25650,"0","FRANKLIN ST","WINCHENDON","MA","1475",71014,42.6912219,-72.04712997,,24,,,
2609,347703,"M_154814_937859",970,970,343,"Winchendon","2nd Worcester District",221700,1680300,13900,1915900,258345.6378,34022,"23","PEARL DR","WINCHENDON","MA","1475",71014,42.69000437,-72.05139038,1,48,,,
2610,347736,"M_154874_937649",970,970,343,"Winchendon","2nd Worcester District",27700,119700,0,147400,10402.64675,3232,"63","MILL ST","WINCHENDON","MA","1475",71014,42.68811749,-72.0506417,2,54,,,
2611,347770,"M_155303_937974",970,970,343,"Winchendon","2nd Worcester District",280900,2643100,176500,3100500,351657.6363,55284,"90","IPSWICH DR","WINCHENDON","MA","1475",71014,42.69106788,-72.04543241,1,43,,,
2612,347910,"M_155411_937770",970,970,343,"Winchendon","2nd Worcester District",28900,114000,0,142900,8126.565072,1981,"404","CENTRAL ST","WINCHENDON","MA","1475",71014,42.68923772,-72.04409865,1,59,,,
2613,347923,"M_155512_937512",970,970,343,"Winchendon","2nd Worcester District",26800,140900,0,167700,6309.933205,4500,"71","MAPLE ST","WINCHENDON","MA","1475",71014,42.68692105,-72.0428462,2,63,,,
2614,347989,"M_155896_937571",970,970,343,"Winchendon","2nd Worcester District",31100,93500,0,124600,13926.41392,2304,"190","MAPLE ST","WINCHENDON","MA","1475",71014,42.68747407,-72.03816526,1,37,,,
2615,348165,"M_154143_937083",970,970,343,"Winchendon","2nd Worcester District",289800,2651600,3500,2944900,237865.7921,51945,"66","HYDE PARK DR","WINCHENDON","MA","1475",78958,42.68297965,-72.05951604,,32,,,
2616,348217,"M_154924_937150",970,970,343,"Winchendon","2nd Worcester District",31200,146500,10200,187900,16076.19374,3199,"33","OAK ST","WINCHENDON","MA","1475",71014,42.6836285,-72.04999234,2,72,,,
2617,348232,"M_154588_937203",970,970,343,"Winchendon","2nd Worcester District",28700,81900,0,110600,6622.443179,1404,"50","COURT ST","WINCHENDON","MA","1475",71014,42.68408601,-72.05409611,2,62,,,
2618,348233,"M_154588_937183",970,970,343,"Winchendon","2nd Worcester District",28000,85200,0,113200,5048.330105,1701,"44","COURT ST","WINCHENDON","MA","1475",71014,42.68390598,-72.05409453,2,62,,,
2619,348267,"M_154206_937152",970,970,343,"Winchendon","2nd Worcester District",41000,126700,28700,196400,99544.97654,2240,"40","HYDE PARK ST","WINCHENDON","MA","1475",78958,42.68360449,-72.05875289,1,44,,,
2620,348299,"M_154545_936900",970,970,343,"Winchendon","2nd Worcester District",33900,115700,0,149600,18338.44881,2449,"244","FRONT ST","WINCHENDON","MA","1475",71014,42.68135595,-72.05459673,2,58,,,
2621,348651,"M_153901_936780",970,970,343,"Winchendon","2nd Worcester District",35400,86300,10200,131900,24089.00368,1288,"410","FRONT ST","WINCHENDON","MA","1475",71014,42.68023778,-72.06244429,1,16,,,
2622,348685,"M_154073_936669",970,970,343,"Winchendon","2nd Worcester District",37400,128900,0,166300,36762.15897,1972,"195","RIVER ST","WINCHENDON","MA","1475",71014,42.67924877,-72.06033692,,24,,,
2625,348786,"M_155684_936499",970,970,343,"Winchendon","2nd Worcester District",31700,111000,0,142700,16845.61675,1584,"33","CROSS ST","WINCHENDON","MA","1475",71014,42.67781206,-72.04066914,,42,,,
2627,349066,"M_155118_936149",970,970,343,"Winchendon","2nd Worcester District",33900,104700,0,138600,17507.98081,1848,"35","COTTAGE ST","WINCHENDON","MA","1475",71014,42.67462891,-72.04754692,,35,,,
2664,351404,"F_582867_2937277",970,970,348,"Worcester","14th Worcester District",17508700,3716500,0,21225200,607537.4087,34638,"180","CONSTITUTION AVE","WORCESTER","MA","1605",19083,42.30771835,-71.770982,,47,34,"Some Transit","4 nearby routes: 4 bus, 0 rail, 0 other"
2668,354210,"F_581825_2936531",970,970,348,"Worcester","14th Worcester District",31325900,2390100,0,33716000,1349369.122,12420,"239","TACOMA ST","WORCESTER","MA","1605",19083,42.30566213,-71.77482526,,39,35,"Some Transit","5 nearby routes: 5 bus, 0 rail, 0 other"
2669,354346,"F_582536_2937037",970,970,348,"Worcester","14th Worcester District",4540700,1961200,0,6501900,122250.8729,16422,"38","FREEDOM WAY","WORCESTER","MA","1605",19083,42.30705688,-71.77220284,,44,34,"Some Transit","4 nearby routes: 4 bus, 0 rail, 0 other"
2670,354572,"F_582866_2936250",970,970,348,"Worcester","14th Worcester District",7557900,4212800,0,11770700,265466.3759,7728,"84","CHINO AVE","WORCESTER","MA","1605",19083,42.30490018,-71.77097364,,42,35,"Some Transit","4 nearby routes: 4 bus, 0 rail, 0 other"
2671,355300,"F_583569_2936215",970,970,348,"Worcester","14th Worcester District",203900,208800,0,412700,20828.08045,6000,"67","TACOMA ST","WORCESTER","MA","1605",19083,42.30481024,-71.76837444,,44,35,"Some Transit","4 nearby routes: 4 bus, 0 rail, 0 other"
2690,361985,"F_582191_2937228",970,970,348,"Worcester","14th Worcester District",8737700,3555200,0,12292900,247068.0857,18630,"275","CONSTITUTION AVE","WORCESTER","MA","1605",19083,42.30757797,-71.77348051,,41,34,"Some Transit","4 nearby routes: 4 bus, 0 rail, 0 other"
2710,363949,"F_576165_2924522",973,973,348,"Worcester","13th Worcester District",12900,0,0,12900,540.9783854,0,"0","BELMONT ST","WORCESTER","MA","1605",41089,42.27265654,-71.79559506,,67,42,"Some Transit","10 nearby routes: 10 bus, 0 rail, 0 other"
2753,388364,"F_582759_2936869",970,970,348,"Worcester","14th Worcester District",1205200,1197900,0,2403100,84472.61477,11178,"47","NEW VISTA LN","WORCESTER","MA","1605",19083,42.30659783,-71.77137647,,48,34,"Some Transit","4 nearby routes: 4 bus, 0 rail, 0 other"
2754,388365,"F_582730_2936564",970,970,348,"Worcester","",2810400,1467400,0,4277800,118313.8927,17526,"67","NEW VISTA LN","WORCESTER","MA","1605",,,,,,,,
2760,389304,"F_583746_2936338",970,970,348,"Worcester","14th Worcester District",1276100,1022600,0,2298700,54858.02512,22425,"60","GREAT BROOK VALLEY AVE","WORCESTER","MA","1605",19083,42.30514928,-71.76772155,,45,34,"Some Transit","4 nearby routes: 4 bus, 0 rail, 0 other"
2761,389305,"F_584018_2936196",970,970,348,"Worcester","14th Worcester District",636000,827600,0,1463600,25101.69791,18150,"52","GREAT BROOK VALLEY AVE","WORCESTER","MA","1605",19083,42.30476196,-71.76671439,,52,34,"Some Transit","4 nearby routes: 4 bus, 0 rail, 0 other"
2762,389306,"F_584804_2935535",970,970,348,"Worcester","14th Worcester District",4874000,1723700,0,6597700,172902.946,15375,"6","GREAT BROOK VALLEY AVE","WORCESTER","MA","1605",19083,42.30295484,-71.76380122,,41,34,"Some Transit","4 nearby routes: 4 bus, 0 rail, 0 other"
2763,389307,"F_584375_2935390",970,970,348,"Worcester","14th Worcester District",4979600,3607500,0,8587100,133612.3402,69375,"3","GREAT BROOK VALLEY AVE","WORCESTER","MA","1605",19083,42.3025533,-71.7653854,,60,34,"Some Transit","4 nearby routes: 4 bus, 0 rail, 0 other"
2764,389308,"F_584027_2935915",970,970,348,"Worcester","14th Worcester District",1574900,3917600,0,5492500,140429.8768,75339,"37","GREAT BROOK VALLEY AVE","WORCESTER","MA","01605 3502",19083,42.30399096,-71.76667788,,52,34,"Some Transit","4 nearby routes: 4 bus, 0 rail, 0 other"
2765,389309,"F_584439_2935839",970,970,348,"Worcester","14th Worcester District",4139700,4446000,0,8585700,147571.0631,44250,"16","GREAT BROOK VALLEY AVE","WORCESTER","MA","1605",19083,42.30378593,-71.76515398,,49,34,"Some Transit","4 nearby routes: 4 bus, 0 rail, 0 other"
2769,389619,"F_583269_2936347",970,970,348,"Worcester","14th Worcester District",9952400,4400800,0,14353200,291647.2439,21528,"69","TACOMA ST","WORCESTER","MA","1605",19083,42.30516986,-71.76948499,,44,35,"Some Transit","4 nearby routes: 4 bus, 0 rail, 0 other"
2806,395103,"F_745663_2978032",970,970,10,"Arlington","23rd Middlesex District",377800,309800,0,687600,8588.42281,4602,"998","MASS AVE","ARLINGTON","MA","2474",109783,42.41939451,-71.16855553,,83,44,"Some Transit","8 nearby routes: 8 bus, 0 rail, 0 other"
2812,399988,"F_750859_2977139",970,970,10,"Arlington","23rd Middlesex District",1887200,4000,0,1891200,62555.50551,0,"54","MEDFORD ST","ARLINGTON","MA","2476",135785,42.41688711,-71.14932625,,83,54,"Good Transit","11 nearby routes: 9 bus, 2 rail, 0 other"
2813,400929,"F_754994_2975131",970,970,10,"Arlington","23rd Middlesex District",5579100,5800,0,5584900,190968.5023,0,"101","GARDNER ST","ARLINGTON","MA","2474",82839,42.4113295,-71.13404521,,64,55,"Good Transit","12 nearby routes: 12 bus, 0 rail, 0 other"
2814,400940,"F_754013_2976202",102,970,10,"Arlington","23rd Middlesex District",0,9144300,0,9144300,50740.41731,30154,"122","DECATUR ST","MEDFORD","MA","2155",82839,42.41427981,-71.13766093,,62,53,"Good Transit","11 nearby routes: 9 bus, 2 rail, 0 other"
2815,400995,"F_754747_2975374",970,970,10,"Arlington","23rd Middlesex District",8418200,5800,0,8424000,276201.7701,0,"100","GARDNER ST","ARLINGTON","MA","2474",82839,42.4119992,-71.13495598,,60,54,"Good Transit","12 nearby routes: 12 bus, 0 rail, 0 other"
2816,402159,"F_745821_2978369",102,970,10,"Arlington","23rd Middlesex District",0,25109500,0,25109500,155646.6938,68285,"995","MASS AVE","BELMONT","MA","2478",92865,42.42031755,-71.16796553,,72,45,"Some Transit","9 nearby routes: 9 bus, 0 rail, 0 other"
2817,402374,"F_749951_2977914",970,970,10,"Arlington","23rd Middlesex District",693500,2978500,0,3672000,31145.61387,52890,"8","SUMMER ST","ARLINGTON","MA","2476",109783,42.4190239,-71.15267712,,83,52,"Good Transit","9 nearby routes: 9 bus, 0 rail, 0 other"
2818,402380,"F_749801_2977957",970,970,10,"Arlington","23rd Middlesex District",256100,214200,0,470300,5287.495436,1344,"24","SUMMER ST","ARLINGTON","MA","2474",109783,42.41914357,-71.15323198,,83,52,"Good Transit","9 nearby routes: 9 bus, 0 rail, 0 other"
2819,402496,"F_749929_2976947",930,970,10,"Arlington","23rd Middlesex District",6329800,9759200,0,16089000,45035.32735,97200,"4","WINSLOW ST","ARLINGTON","MA","2474",109783,42.4163707,-71.15277317,,87,52,"Good Transit","9 nearby routes: 9 bus, 0 rail, 0 other"
2822,405169,"F_739768_2980582",970,970,10,"Arlington","",4947800,1280500,22300,6250600,186031.7339,4160,"16","DRAKE RD","ARLINGTON","MA","2476",,42.42645248,-71.19035284,,80,44,"Some Transit","7 nearby routes: 7 bus, 0 rail, 0 other"
2856,410688,"M_218255_855011",970,970,16,"Attleboro","2nd Bristol District",81400,152900,0,234300,5050.313422,6012,"12","HOLMAN ST","ATTLEBORO","MA","2703",42557,41.94524302,-71.27984683,15,85,38,"Some Transit","8 nearby routes: 7 bus, 1 rail, 0 other"
2862,411209,"M_217731_855243",970,970,16,"Attleboro","2nd Bristol District",98400,217500,0,315900,9398.29008,6877,"17","PECK ST","ATTLEBORO","MA","2703",42557,41.9473438,-71.28615916,11,81,37,"Some Transit","8 nearby routes: 7 bus, 1 rail, 0 other"
2863,411210,"M_217711_855231",970,970,16,"Attleboro","2nd Bristol District",108800,31000,0,139800,16639.6579,3024,"0","PECK ST","ATTLEBORO","MA","2703",42557,41.94723621,-71.28640073,11,81,37,"Some Transit","8 nearby routes: 7 bus, 1 rail, 0 other"
2868,411342,"M_217641_854068",970,970,16,"Attleboro","2nd Bristol District",76500,113700,0,190200,3306.611814,3016,"67","GARDEN ST","ATTLEBORO","MA","2703",55947,41.93676688,-71.28727993,8,71,38,"Some Transit","8 nearby routes: 7 bus, 1 rail, 0 other"
2869,411351,"M_217718_854038",970,970,16,"Attleboro","2nd Bristol District",99600,141500,0,241100,8585.518122,5722,"9","ELLIS ST","ATTLEBORO","MA","2703",55947,41.93649505,-71.28635235,8,76,38,"Some Transit","8 nearby routes: 7 bus, 1 rail, 0 other"
2876,412540,"M_218459_853960",970,970,16,"Attleboro","2nd Bristol District",155900,325000,3600,484500,13495.68689,4928,"17","MARTIN ST","ATTLEBORO","MA","2703",55947,41.93577572,-71.2774197,5,54,34,"Some Transit","8 nearby routes: 7 bus, 1 rail, 0 other"
2877,412541,"M_218465_854008",970,970,16,"Attleboro","2nd Bristol District",151000,447400,2400,600800,14522.96237,7568,"25","MARTIN ST","ATTLEBORO","MA","2703",55947,41.93620774,-71.27734584,5,54,34,"Some Transit","8 nearby routes: 7 bus, 1 rail, 0 other"
2884,413767,"M_216386_853641",970,970,16,"Attleboro","2nd Bristol District",375000,3898300,41300,4314600,129627.2504,2012,"454","THACHER ST","ATTLEBORO","MA","2703",94600,41.93294962,-71.30242493,4,46,25,"Some Transit","4 nearby routes: 4 bus, 0 rail, 0 other"
2885,415321,"M_220208_851729",970,970,16,"Attleboro","2nd Bristol District",128700,214000,28000,370700,21599.89132,3494,"20","STARR LN","ATTLEBORO","MA","2703",100882,41.91564619,-71.25640703,1,11,14,"Minimal Transit","1 nearby routes: 1 bus, 0 rail, 0 other"
2895,417808,"M_215761_853687",970,970,16,"Attleboro","2nd Bristol District",1005000,7137300,48000,8190300,371291.9317,10746,"","SOUTH AVE","ATTLEBORO","MA","2703",94600,41.93337656,-71.30995964,5,28,25,"Some Transit","3 nearby routes: 3 bus, 0 rail, 0 other"
2896,417820,"M_215855_853808",970,970,16,"Attleboro","2nd Bristol District",625000,3280600,0,3905600,210801.1336,1302,"","SOUTH AVE","ATTLEBORO","MA","2703",94600,41.93446408,-71.30882296,5,34,24,"Minimal Transit","3 nearby routes: 3 bus, 0 rail, 0 other"
2897,418249,"M_216921_856037",970,970,16,"Attleboro","2nd Bristol District",320000,4634600,106700,5061300,139894.6127,63356,"41","NORTH AVE","ATTLEBORO","MA","2703",96708,41.95451032,-71.29590504,,34,20,"Minimal Transit","2 nearby routes: 2 bus, 0 rail, 0 other"
2899,418614,"M_217440_855095",970,970,16,"Attleboro","2nd Bristol District",104800,2428000,114600,2647400,40126.60727,42903,"4","HODGES ST","ATTLEBORO","MA","2703",96708,41.94601782,-71.28967309,10,78,37,"Some Transit","8 nearby routes: 7 bus, 1 rail, 0 other"
2904,419311,"M_218873_853854",970,970,16,"Attleboro","2nd Bristol District",10300,0,0,10300,11926.29724,0,"","GEORGE ST","ATTLEBORO","MA","2703",81029,41.93481153,-71.27243108,2,39,30,"Some Transit","8 nearby routes: 7 bus, 1 rail, 0 other"
2905,419317,"M_218878_853883",970,970,16,"Attleboro","2nd Bristol District",96000,515200,0,611200,8218.521578,5054,"","GEORGE ST","ATTLEBORO","MA","2703",81029,41.93507251,-71.27236986,3,39,30,"Some Transit","8 nearby routes: 7 bus, 1 rail, 0 other"
2911,426983,"F_1021381_2726593",970,970,75,"Dennis","1st Barnstable District",109000,138600,0,247600,14370.12705,1560,"8","GRASSY POND DRIVE ED","SOUTH DENNIS","MA","2660",,41.72201815,-70.16215952,,17,,,
2914,434875,"F_1024142_2723044",970,970,75,"Dennis","1st Barnstable District",562900,2826700,66800,3456400,810593.811,3546,"812","ROUTE 134 ED","SOUTH DENNIS","MA","2660",,41.71216064,-70.1522526,,4,,,
2915,434943,"F_1016795_2722252",970,970,75,"Dennis","1st Barnstable District",104100,143800,0,247900,7328.992558,1560,"157","BAY RIDGE DRIVE SD","SOUTH DENNIS","MA","2660",,41.71030282,-70.17920231,,12,,,
2920,435276,"F_1025041_2712844",970,970,75,"Dennis","1st Barnstable District",403600,2463500,5300,2872400,178736.0804,44156,"79","UPPER COUNTY ROAD SD","SOUTH DENNIS","MA","2660",,41.6841335,-70.1495519,,26,,,
2921,435286,"F_1025187_2712949",970,970,75,"Dennis","1st Barnstable District",95300,132100,0,227400,8249.419303,1499,"109","UPPER COUNTY ROAD SD","SOUTH DENNIS","MA","2660",,41.68441527,-70.14901139,,40,,,
2922,435452,"F_1026468_2709199",970,970,75,"Dennis","1st Barnstable District",307200,1984900,400,2292500,115963.7846,5070,"167","CENTER STREET SD","SOUTH DENNIS","MA","2660",,41.67406975,-70.14454057,1,29,,,
2923,435550,"F_1030219_2707886",970,970,75,"Dennis","1st Barnstable District",113800,360200,2700,476700,19534.55078,5313,"150","UPPER COUNTY ROAD DP","SOUTH DENNIS","MA","2660",,41.67030258,-70.13088981,1,46,,,
2924,435555,"F_1030317_2707843",973,973,75,"Dennis","1st Barnstable District",96900,0,0,96900,10212.64372,0,"150","UPPER COUNTY ROAD DP","SOUTH DENNIS","MA","2660",,41.67018027,-70.1305337,1,46,,,
2925,435561,"F_1030165_2707779",973,973,75,"Dennis","1st Barnstable District",100100,0,0,100100,10760.99601,0,"150","UPPER COUNTY ROAD DP","SOUTH DENNIS","MA","2660",,41.67001136,-70.13109371,1,46,,,
2926,435566,"F_1030261_2707734",973,973,75,"Dennis","1st Barnstable District",99300,0,0,99300,11495.34279,0,"150","UPPER COUNTY ROAD DP","SOUTH DENNIS","MA","2660",,41.66988365,-70.13074504,1,46,,,
2928,435824,"F_1030883_2705019",970,970,75,"Dennis","1st Barnstable District",135300,125800,0,261100,7757.252012,1560,"6","ELLIS DRIVE DP","SOUTH DENNIS","MA","2660",,41.66240647,-70.12862855,1,47,,,
2931,437440,"F_1021668_2720093",970,970,75,"Dennis","1st Barnstable District",1549800,2226000,31700,3807500,376132.3603,4224,"226","OLD BASS RIVER ROAD SD","SOUTH DENNIS","MA","2660",,41.70417019,-70.16148198,,14,,,
2932,437732,"F_1028096_2709072",970,970,75,"Dennis","1st Barnstable District",94500,115300,0,209800,7979.519189,1560,"7","CRESTWOOD LANE DP","SOUTH DENNIS","MA","2660",,41.67365012,-70.13858983,,28,,,
2937,442340,"M_281809_794216",970,970,89,"Edgartown","Barnstable, Dukes & Nantucket District",417600,283800,0,701400,12175.41088,3720,"19","FISHER RD","VINEYARD HAVEN","MA","2568",64810,41.39386479,-70.52184204,11,61,,,
2938,442341,"M_281788_794207",970,970,89,"Edgartown","Barnstable, Dukes & Nantucket District",417500,283800,0,701300,11955.12583,3720,"15","FISHER RD","VINEYARD HAVEN","MA","2568",64810,41.39378593,-70.52209434,11,61,,,
2939,442342,"M_281764_794197",970,970,89,"Edgartown","Barnstable, Dukes & Nantucket District",417700,283800,0,701500,12701.52561,3720,"9","FISHER RD","VINEYARD HAVEN","MA","2568",64810,41.39369838,-70.52238264,11,61,,,
2940,442343,"M_281742_794192",970,970,89,"Edgartown","Barnstable, Dukes & Nantucket District",406300,283800,0,690100,10217.68348,3720,"5","FISHER RD","VINEYARD HAVEN","MA","2568",64810,41.39365564,-70.52264635,11,61,,,
2961,448592,"F_918430_2689896",970,970,96,"Falmouth","3rd Barnstable District",99200,136900,0,236100,21718.17579,2852,"91","FORDHAM RD","FALMOUTH","MA","02540-3560",,41.62512447,-70.54075966,1,4,,,
2997,449791,"F_918449_2689994",970,970,96,"Falmouth","3rd Barnstable District",98900,143500,0,242400,21232.39761,2448,"95","FORDHAM RD","FALMOUTH","MA","02540-3560",,41.62539281,-70.54068614,1,4,,,
3009,452750,"F_912785_2684021",970,970,96,"Falmouth","3rd Barnstable District",76800,139600,7700,224100,9952.570496,2504,"26","ALDERBERRY LN","FALMOUTH","MA","02540-3560",,41.60917515,-70.56164121,,6,,,
3015,453154,"F_921459_2684065",970,970,96,"Falmouth","3rd Barnstable District",81300,121500,0,202800,14074.21231,2550,"14","ASHTON AVE","FALMOUTH","MA","02540-3560",,41.6090296,-70.52992445,,6,,,
3018,453615,"F_908991_2679776",970,970,96,"Falmouth","3rd Barnstable District",84600,124000,0,208600,7812.633181,2624,"26","PINECREST BEACH DR","FALMOUTH","MA","02540-3560",,41.59764006,-70.57568158,,10,,,
3019,453777,"F_909808_2681952",970,970,96,"Falmouth","3rd Barnstable District",87200,105300,0,192500,22105.67624,1692,"103","TURNER RD","FALMOUTH","MA","02540-3560",,41.60358692,-70.5726084,,12,,,
3020,454526,"F_908129_2678675",970,970,96,"Falmouth","3rd Barnstable District",87000,110400,0,197400,9676.131187,2358,"8","WHITE PINE LN","FALMOUTH","MA","02540-3560",,41.59464438,-70.57887625,,6,,,
3026,455594,"F_899794_2675504",970,970,96,"Falmouth","Barnstable, Dukes & Nantucket District",86500,81700,0,168200,10863.30763,1632,"466","BRICK KILN RD","FALMOUTH","MA","02540-3560",,41.58618567,-70.60946611,,13,,,
3029,456283,"F_906180_2674246",970,970,96,"Falmouth","3rd Barnstable District",88100,133100,0,221200,11491.39732,2068,"42","JAMIE LN","FALMOUTH","MA","02540-3560",,41.5825482,-70.58617432,,11,,,
3030,456449,"F_908191_2675487",970,970,96,"Falmouth","3rd Barnstable District",90900,128300,0,219200,14141.25228,2172,"86","MEREDITH DR","FALMOUTH","MA","02540-3560",,41.58589429,-70.57877548,,7,,,
3031,456715,"F_910094_2673949",970,970,96,"Falmouth","3rd Barnstable District",76900,98600,0,175500,11292.12785,1840,"60","JOHN PARKER RD","FALMOUTH","MA","02540-3560",,41.58161722,-70.57188116,,27,,,
3032,456945,"F_913451_2676337",970,970,96,"Falmouth","3rd Barnstable District",81400,102000,0,183400,15923.56502,2158,"31","WINDSWEPT RD","FALMOUTH","MA","02540-3560",,41.58806926,-70.55951589,,25,,,
3033,457047,"F_912935_2675488",970,970,96,"Falmouth","3rd Barnstable District",77200,106100,0,183300,10769.65518,1920,"189","OLD BARNSTABLE RD","FALMOUTH","MA","02540-3560",,41.5857551,-70.56143608,1,34,,,
3053,458590,"F_918172_2672142",970,970,96,"Falmouth","3rd Barnstable District",96200,110600,0,206800,7749.111045,2511,"44","CAROLYN LN","FALMOUTH","MA","02540-3560",,41.57641358,-70.5424322,,27,,,
3054,458657,"F_918075_2671506",970,970,96,"Falmouth","3rd Barnstable District",97300,92400,0,189700,8940.360713,1636,"20","MADELINE RD","FALMOUTH","MA","02540-3560",,41.57467131,-70.54281276,,18,,,
3057,458965,"F_920175_2673026",970,970,96,"Falmouth","3rd Barnstable District",84700,102100,0,186800,7462.286227,2100,"19","MARSHALL DR","FALMOUTH","MA","02540-3560",,41.57877742,-70.53507578,1,16,,,
3059,459065,"F_920599_2673074",970,970,96,"Falmouth","3rd Barnstable District",85000,138800,0,223800,7959.416431,4134,"38","MARSHALL DR","FALMOUTH","MA","02540-3560",,41.57889596,-70.53352424,1,14,,,
3060,459271,"F_919208_2671021",970,970,96,"Falmouth","3rd Barnstable District",97000,111400,0,208400,9175.4117,2288,"130","EDGEWATER DR WEST","FALMOUTH","MA","02540-3560",,41.57330545,-70.53869235,,6,,,
3061,459973,"F_910494_2669453",970,970,96,"Falmouth","3rd Barnstable District",122000,117400,0,239400,11427.36123,2208,"7","CAROL AVE","FALMOUTH","MA","02540-3560",,41.56926773,-70.5705983,,6,,,
3062,460468,"F_914647_2672153",970,970,96,"Falmouth","3rd Barnstable District",76800,91300,0,168100,10475.8802,1920,"24","SAO PAULO DR","FALMOUTH","MA","02540-3560",,41.57655163,-70.55531374,1,51,,,
3079,462733,"F_899198_2665743",970,970,96,"Falmouth","Barnstable, Dukes & Nantucket District",176600,,,176600,13434.19371,0,"0","LAKEVIEW AVE","FALMOUTH","MA","02540-3560",,41.55941728,-70.61201595,3,62,,,
3080,462739,"F_899088_2665686",970,970,96,"Falmouth","Barnstable, Dukes & Nantucket District",349000,298900,19500,667400,76569.9665,12163,"238","LAKEVIEW AVE","FALMOUTH","MA","02540-3560",,41.559264,-70.61242001,3,62,,,
3084,463005,"F_905940_2668224",970,970,96,"Falmouth","3rd Barnstable District",130700,118300,0,249000,8698.662536,2120,"28","MILTON ST","FALMOUTH","MA","02540-3560",,41.56603015,-70.587287,3,32,,,
3085,463749,"F_901947_2665551",970,970,96,"Falmouth","Barnstable, Dukes & Nantucket District",393600,1037800,51100,1482500,319934.8232,43628,"58","ROSE MORIN LN","FALMOUTH","MA","02540-3560",,41.55881142,-70.60197982,7,63,,,
3087,463899,"F_902904_2667689",970,970,96,"Falmouth","Barnstable, Dukes & Nantucket District",2640000,2566000,0,5206000,479427.5365,85616,"138","TEATICKET HWY","FALMOUTH","MA","02540-3560",,41.56465066,-70.59840088,4,53,,,
3088,464111,"F_906184_2666728",970,970,96,"Falmouth","3rd Barnstable District",125400,92000,0,217400,4891.235517,1728,"86","PRISCILLA ST","FALMOUTH","MA","02540-3560",,41.56191778,-70.586454,1,38,,,
3089,464394,"F_904968_2665762",970,970,96,"Falmouth","3rd Barnstable District",111800,110300,0,222100,4796.9087,2304,"12","MONTAUK ST","FALMOUTH","MA","02540-3560",,41.55930261,-70.59093446,4,30,,,
3090,464460,"F_904986_2666371",970,970,96,"Falmouth","3rd Barnstable District",115200,125600,0,240800,7232.642847,2499,"22","OAK ST","FALMOUTH","MA","02540-3560",,41.56097326,-70.59084498,4,49,,,
3091,464482,"F_905464_2666840",970,970,96,"Falmouth","3rd Barnstable District",115200,111900,0,227100,7245.414152,2325,"123","MARAVISTA AVE","FALMOUTH","MA","02540-3560",,41.56224625,-70.58908026,2,45,,,
3092,468719,"F_901169_2662837",970,970,96,"Falmouth","Barnstable, Dukes & Nantucket District",1084300,3019100,0,4103400,227419.618,84988,"115","SCRANTON AVE","FALMOUTH","MA","02540-3560",,41.55138631,-70.60492629,4,69,,,
3093,468759,"F_901136_2661878",970,970,96,"Falmouth","Barnstable, Dukes & Nantucket District",1038900,530500,0,1569400,162044.4673,19953,"211","SCRANTON AVE","FALMOUTH","MA","02540-3560",,41.54875564,-70.6050836,1,63,,,
3200,474575,"F_816209_2784815",970,970,182,"Middleborough","12th Bristol District",323400,1465500,14600,1803500,168605.4034,5258,"5","WOODLAND AVE","MIDDLEBORO","MA","2346",62963,41.88814157,-70.91222987,5,62,,,
3206,474822,"F_817620_2785784",970,970,182,"Middleborough","12th Bristol District",45500,220600,0,266100,8302.284888,8341,"8","BENTON ST","MIDDLEBORO","MA","2346",62963,41.89077388,-70.90702327,4,63,,,
3207,474841,"F_817875_2785439",970,970,182,"Middleborough","12th Bristol District",583700,1776000,25400,2385100,304207.6996,6002,"6","SPENCER ST","MIDDLEBORO","MA","2346",62963,41.88982227,-70.90609558,4,63,,,
3219,476206,"F_815375_2788079",970,970,182,"Middleborough","12th Bristol District",326000,963300,8500,1297800,90055.14964,3523,"","PARK ST","MIDDLEBORO","MA","2346",62963,41.89711432,-70.91521054,4,56,,,
3220,476447,"F_815158_2788595",970,970,182,"Middleborough","12th Bristol District",569200,962200,11400,1542800,227130.8272,3360,"","MAPLE AVE (OFF)","MIDDLEBORO","MA","2346",62963,41.8985344,-70.9159946,1,47,,,
3282,481529,"F_798220_3042720",970,970,184,"Middleton","13th Essex District",287200,1333600,12600,1633400,128195.675,15684,"1","MEMORIAL DR","MIDDLETON","MA","1949",102604,42.59616701,-70.97243603,,21,,,
3285,481732,"F_788387_3040593",973,973,184,"Middleton","13th Essex District",28600,0,0,28600,222807.4369,0,"0","SOUTH MAIN ST","MIDDLETON","MA","1949",102604,42.59049196,-71.0089989,,31,,,
3300,483746,"F_1073942_2753375",970,970,224,"Orleans","4th Barnstable District",414000,2953500,24600,3392100,391284.5551,5660,"94","HOPKINS LN","ORLEANS","MA","2653",,41.79307835,-69.96789662,,26,,,
3301,483821,"F_1073606_2753182",970,970,224,"Orleans","4th Barnstable District",421600,1110600,0,1532200,344848.5218,2842,"0","JOHN B AVELLAR CR","ORLEANS","MA","2653",,41.79256534,-69.96914127,,22,,,
3305,484284,"F_1072604_2752233",973,973,224,"Orleans","4th Barnstable District",264900,333700,0,598600,67807.09541,4400,"53","MEETINGHOUSE RD","ORLEANS","MA","2653",,41.79001074,-69.97287738,,25,,,
3311,485043,"F_1074199_2750539",343,970,224,"Orleans","4th Barnstable District",0,1037300,0,1037300,42510.02736,9373,"210","MAIN ST","ORLEANS","MA","2653",,41.78528419,-69.96714122,,49,,,
3317,485221,"F_1072938_2749958",970,970,224,"Orleans","4th Barnstable District",239800,265400,300,505500,61041.72827,2516,"181","MAIN ST","ORLEANS","MA","2653",,41.78375212,-69.97180228,,46,,,
3320,485760,"F_1063891_2748593",970,970,224,"Orleans","4th Barnstable District",171200,69800,600,241600,23786.09247,936,"15","OAK RIDGE LN","ORLEANS","MA","2653",,41.78044673,-70.00505624,1,30,,,
3333,488967,"M_215078_862115",970,970,238,"Plainville","9th Norfolk District",1200000,1274000,91900,2565900,557772.7256,5000,"140","EAST BACON ST","PLAINVILLE","MA","2762",98280,42.00927008,-71.31797812,,26,,,
3351,493360,"F_586124_2936565",970,970,271,"Shrewsbury","11th Worcester District",167800,541800,0,709600,61255.56592,2740,"241-247","HOLDEN ST","SHREWSBURY","MA","01545 2455",126974,42.30579233,-71.75893326,10,38,,,
3357,494628,"F_599805_2932451",970,970,271,"Shrewsbury","11th Worcester District",2e+06,3676800,9200,5686000,245270.9784,3673,"20R","FRANCIS AVE","SHREWSBURY","MA","01545 3006",118633,42.29460602,-71.70832051,13,38,,,
3358,495087,"F_604176_2931934",970,970,271,"Shrewsbury","11th Worcester District",178000,227000,0,405000,21158.27325,3120,"40-42","LIBERTY DR","SHREWSBURY","MA","01545 2455",118633,42.29321549,-71.69216045,1,13,,,
3359,496687,"F_601936_2931047",970,970,271,"Shrewsbury","11th Worcester District",251700,394800,2300,648800,52499.5168,4436,"73-75","SOUTH ST","SHREWSBURY","MA","01545 2455",118633,42.29076734,-71.70043188,6,25,,,
3360,497499,"F_588006_2926901",970,970,271,"Shrewsbury","11th Worcester District",188200,862900,0,1051100,38792.25687,2640,"18-Aug","PARKER RD","SHREWSBURY","MA","01545 2455",77932,42.279289,-71.75187044,12,70,,,
3361,497547,"F_588003_2925840",970,970,271,"Shrewsbury","11th Worcester District",1980000,6563600,29700,8573300,203497.025,84988,"36","N QUINSIGAMOND AVE","SHREWSBURY","MA","01545 5338",77932,42.2763775,-71.75186995,19,81,,,
3363,498147,"F_593890_2927562",970,970,271,"Shrewsbury","11th Worcester District",143200,135900,0,279100,8000.064109,1490,"35-37","ROSEDALE AVE","SHREWSBURY","MA","01545 2455",91425,42.28114847,-71.73013432,7,35,,,
3365,498220,"F_596822_2925281",970,970,271,"Shrewsbury","11th Worcester District",217300,291500,800,509600,75629.02255,5016,"175","LAKE ST","SHREWSBURY","MA","01545 2455",113750,42.27491039,-71.71927792,,51,,,
3366,498221,"F_596776_2925022",970,970,271,"Shrewsbury","11th Worcester District",207700,302500,800,511000,45626.492,2836,"177","LAKE ST","SHREWSBURY","MA","01545 2455",113750,42.27419934,-71.71944542,,51,,,
3367,498222,"F_596735_2924786",970,970,271,"Shrewsbury","11th Worcester District",213700,291500,600,505800,65057.95347,5016,"185","LAKE ST","SHREWSBURY","MA","01545 2455",113750,42.27355145,-71.71959467,,43,,,
3368,498887,"F_588652_2923108",970,970,271,"Shrewsbury","11th Worcester District",176100,470500,0,646600,30682.54766,2007,"6-Feb","RIDGELAND RD","SHREWSBURY","MA","01545 2455",77932,42.26888587,-71.74944234,16,59,,,
3385,502763,"F_588756_2922292",970,970,271,"Shrewsbury","11th Worcester District",720000,1715400,0,2435400,177004.6721,22740,"11","ELIZABETH ST","SHREWSBURY","MA","01545 2455",77932,42.26664753,-71.7490493,13,57,,,
3393,506886,"F_508841_2857053",970,970,278,"Southbridge","6th Worcester District",23300,0,0,23300,13867.50716,0,"","PLEASANT STREET","SOUTHBRIDGE","MA","01550-1955",50494,42.08660565,-72.04275646,3,46,,,
3394,507101,"F_512340_2852608",970,970,278,"Southbridge","6th Worcester District",112900,1635800,92500,1841200,78791.17334,40244,"150","MAIN STREET","SOUTHBRIDGE","MA","01550-2580",29531,42.07446833,-72.02976456,10,64,,,
3396,509385,"F_506771_2852625",970,970,278,"Southbridge","6th Worcester District",32400,331000,800,364200,22931.13658,5580,"74","LITCHFIELD AVENUE","SOUTHBRIDGE","MA","01550-1955",70142,42.07441822,-72.05027701,,31,,,
3397,509505,"F_508673_2856689",970,970,278,"Southbridge","6th Worcester District",22600,0,0,22600,29593.569,0,"","PLEASANT STREET","SOUTHBRIDGE","MA","01550-1955",50494,42.08560385,-72.04336682,3,59,,,
3398,509512,"F_508807_2856603",970,970,278,"Southbridge","6th Worcester District",31600,0,0,31600,34900.77704,0,"","PLEASANT STREET REAR","SOUTHBRIDGE","MA","01550-1955",50494,42.0853702,-72.04287116,3,59,,,
3399,509913,"F_507521_2854122",970,970,278,"Southbridge","6th Worcester District",22400,169200,9400,201000,12228.78836,10900,"68","SCHOOL STREET","SOUTHBRIDGE","MA","01550-1955",50494,42.07853944,-72.04754997,5,60,,,
3400,509920,"F_512922_2854076",970,970,278,"Southbridge","6th Worcester District",150600,4964400,230300,5345300,41957.70768,96586,"60","CHARLTON STREET","SOUTHBRIDGE","MA","01550-1955",29531,42.07850663,-72.02765436,9,63,,,
3401,509976,"F_507550_2854366",970,970,278,"Southbridge","6th Worcester District",22400,104200,200,126800,13049.81692,3108,"5","COLLIER STREET","SOUTHBRIDGE","MA","01550-1955",50494,42.07920952,-72.04744891,5,61,,,
3402,510107,"F_507526_2854241",970,970,278,"Southbridge","6th Worcester District",22700,104200,0,126900,11591.09614,3108,"11","COLLIER STREET","SOUTHBRIDGE","MA","01550-1713",50494,42.07886608,-72.04753436,5,61,,,
3403,510256,"F_509956_2854995",970,970,278,"Southbridge","6th Worcester District",62500,274600,2600,339700,28474.56974,4768,"45","CROSS STREET","SOUTHBRIDGE","MA","01550-1955",35977,42.08097762,-72.03860097,9,70,,,
3405,510817,"F_508804_2856965",970,970,278,"Southbridge","6th Worcester District",23600,0,0,23600,17493.46398,0,"","PLEASANT STREET","SOUTHBRIDGE","MA","01550-1955",50494,42.08636352,-72.0428907,3,46,,,
3506,514863,"M_178804_909381",970,970,282,"Sterling","12th Worcester District",167200,1359200,16600,1543000,305951.1808,2846,"7","BIRD STREET","STERLING","MA","1564",107348,42.4346632,-71.75760134,,43,,,
3666,533008,"F_808096_2901785",970,970,336,"Weymouth","4th Norfolk District",3024000,7716200,50400,10790600,407772.5378,3741,"77","MEMORIAL DR","WEYMOUTH","MA","2188",59083,42.20927332,-70.93920037,,38,,,
3670,533172,"F_808074_2902423",970,970,336,"Weymouth","4th Norfolk District",2160000,4897100,31800,7088900,189963.5907,3416,"0","JOSEPH FERN CT","WEYMOUTH","MA","2188",59083,42.21102444,-70.9392661,4,37,,,
3672,533208,"F_805052_2905444",970,970,336,"Weymouth","3rd Norfolk District",5616000,7945800,28800,13590600,167467.2783,1500,"0","ESSEX ST","WEYMOUTH","MA","2188",72882,42.21936827,-70.950349,1,25,,,
3673,533259,"F_808112_2902019",970,970,336,"Weymouth","4th Norfolk District",1800000,4408700,30500,6239200,139122.2223,3504,"50","MEMORIAL DR","WEYMOUTH","MA","2188",59083,42.20991515,-70.93913564,,38,,,
3674,533301,"F_811665_2898702",970,970,336,"Weymouth","4th Norfolk District",1440000,3425500,23300,4888800,121121.0446,1897,"8","GAROFALO RD","WEYMOUTH","MA","2188",68272,42.20074818,-70.92610349,11,39,,,
3677,533393,"F_805006_2905066",970,970,336,"Weymouth","3rd Norfolk District",384500,0,0,384500,95840.57112,0,"0","BROAD ST","E WEYMOUTH","MA","2189",72882,42.21833182,-70.95052781,1,25,,,
3680,533702,"F_807661_2902781",970,970,336,"Weymouth","4th Norfolk District",166900,0,0,166900,55628.03598,0,"0","MIDDLE ST","WEYMOUTH","MA","2188",59083,42.21201426,-70.94078189,5,29,,,
3681,533732,"F_807010_2914259",970,970,336,"Weymouth","4th Norfolk District",1116000,2377900,19800,3513700,53044.28357,23845,"575","BRIDGE ST","WEYMOUTH","MA","2188",77434,42.24352237,-70.94290817,,61,,,
3684,533952,"F_812066_2903398",970,970,336,"Weymouth","4th Norfolk District",231200,5082700,9300,5323200,42471.88943,47423,"25","WATER ST","WEYMOUTH","MA","2188",68272,42.21362695,-70.92450663,,52,,,
3697,554096,"M_248522_826041",970,970,3,"Acushnet","11th Bristol District",548900,2695600,7400,3251900,179777.1704,40676,"23","MAIN STREET","ACUSHNET","MA","2743",53705,41.68313232,-70.91722521,8,56,,,
3698,554165,"M_249344_825704",970,970,3,"Acushnet","11th Bristol District",88500,334200,600,423300,21347.20128,4881,"26","GARFIELD STREET","LINCOLN","RI","02865-1163",53705,41.68004721,-70.90738099,,48,,,
3713,557611,"F_602691_2977986",970,970,64,"Clinton","12th Worcester District",1320000,4909900,131300,6361200,503504.8801,5050,"58","FITCH RD","CLINTON","MA","1510",79283,42.41957507,-71.69804427,,34,,,
3716,558021,"F_606175_2975946",970,970,64,"Clinton","12th Worcester District",110600,400800,15300,526700,53546.46868,4998,"137 - 139","PLEASANT ST","CLINTON","MA","1510",79283,42.41399876,-71.68512511,,77,,,
3718,558179,"F_607629_2976627",970,970,64,"Clinton","12th Worcester District",660000,2244100,70700,2974800,81114.32173,11632,"309","CHURCH ST","CLINTON","MA","1510",54627,42.41587597,-71.6797461,,69,,,
3720,558504,"F_607469_2977406",970,970,64,"Clinton","12th Worcester District",480000,1561900,39100,2081000,51756.18272,1600,"271","CHESTNUT ST","CLINTON","MA","1510",54627,42.41801263,-71.68034472,1,78,,,
3721,558640,"F_609556_2977798",970,970,64,"Clinton","12th Worcester District",480000,1280700,17700,1778400,72680.69136,2628,"367","WATER ST","CLINTON","MA","1510",54627,42.41910013,-71.67261878,,39,,,
3722,558845,"F_603505_2978274",970,970,64,"Clinton","12th Worcester District",408000,1745100,58600,2211700,119447.4823,4786,"Jan-50","FITCH RD","CLINTON","MA","1510",79283,42.42037049,-71.69503212,1,49,,,
3755,562394,"F_374793_3050287",970,970,106,"Gill","2nd Franklin District",203000,953400,15200,1171600,433597.9593,0,"12","MAIN RD","TURNERS FALLS","MA","1376",,42.61340461,-72.54528342,,28,,,
3880,565144,"M_147651_924076",970,970,235,"Phillipston","2nd Franklin District",38700,134500,2600,175800,72217.7472,2650,"30","POWERS MILLS RD","FITCHBURG","MA","1420",72900,42.56548142,-72.13753806,1,6,18,"Minimal Transit","3 nearby routes: 3 bus, 0 rail, 0 other"
3961,569960,"M_263039_882271",970,970,264,"Scituate","4th Plymouth District",4498200,6044200,45500,10587900,436204.922,2984,"9","COMMON ST","SCITUATE","MA","2066",122072,42.18834461,-70.73683416,1,15,,,
3963,573466,"M_258649_885840",970,970,264,"Scituate","4th Plymouth District",1535100,1577000,32500,3144600,231841.5179,1940,"791","COUNTRY WAY","NORTH SCITUATE","MA","2060",,42.22081673,-70.78961821,4,37,,,
3966,575297,"M_260865_883378",970,970,264,"Scituate","4th Plymouth District",263700,646500,0,910200,41485.35027,4528,"412","FIRST PARISH RD","SCITUATE","MA","2066",126818,42.19848274,-70.76303603,2,19,,,
3967,576769,"M_261465_883708",970,970,264,"Scituate","4th Plymouth District",1064900,5477700,32500,6575100,232645.5194,62990,"0","CENTRAL PARK DR","NORTH SCITUATE","MA","2060",126818,42.20140674,-70.75573663,1,17,,,
3973,577041,"M_264051_881218",970,970,264,"Scituate","4th Plymouth District",76100,0,0,76100,318048.6285,0,"0","NEW KENT ST","SCITUATE","MA","2066",122072,42.17878257,-70.72469918,,13,,,
3975,578287,"F_385409_2883377",970,970,281,"Springfield","9th Hampden District",29300,0,0,29300,24145.15263,0,"20","LA FRANCE ST","SPRINGFIELD","MA","1104",39052,42.15578026,-72.49859051,,48,28,"Some Transit","1 nearby routes: 1 bus, 0 rail, 0 other"
3982,580922,"F_365468_2877216",970,970,281,"Springfield","9th Hampden District",173400,1327000,0,1500400,217042.4944,38400,"1118","ST JAMES AV","SPRINGFIELD","MA","1104",47733,42.13821058,-72.57184258,18,78,42,"Some Transit","4 nearby routes: 4 bus, 0 rail, 0 other"
3986,581436,"F_364706_2876111",970,970,281,"Springfield","9th Hampden District",729700,0,0,729700,1518606.204,0,"","CAREW ST","SPRINGFIELD","MA","1104",47733,42.1351522,-72.57460055,,68,42,"Some Transit","4 nearby routes: 4 bus, 0 rail, 0 other"
3987,582336,"F_377662_2876555",970,970,281,"Springfield","9th Hampden District",61000,2258500,0,2319500,219689.9737,46810,"","BERKSHIRE AV","SPRINGFIELD","MA","1109",31250,42.13680848,-72.52685687,,60,42,"Some Transit","5 nearby routes: 5 bus, 0 rail, 0 other"
3988,584123,"F_375903_2872967",970,970,281,"Springfield","11th Hampden District",23200,124800,0,148000,5000.005544,2040,"53","MANILLA AV","SPRINGFIELD","MA","1104",53723,42.12690482,-72.5331815,,55,37,"Some Transit","5 nearby routes: 5 bus, 0 rail, 0 other"
3989,584218,"F_375777_2872885",970,970,281,"Springfield","11th Hampden District",23200,124800,0,148000,5000.381936,2040,"37","MANILLA AV","SPRINGFIELD","MA","1104",53723,42.12667562,-72.53364229,,63,37,"Some Transit","4 nearby routes: 4 bus, 0 rail, 0 other"
3990,584286,"F_375562_2872743",970,970,281,"Springfield","11th Hampden District",24100,123600,0,147700,6299.834135,2640,"13","MANILLA AV","SPRINGFIELD","MA","1104",53723,42.12627883,-72.53442845,,63,37,"Some Transit","4 nearby routes: 4 bus, 0 rail, 0 other"
3993,584718,"F_375651_2872804",970,970,281,"Springfield","11th Hampden District",23200,123300,0,146500,5000.347885,1710,"23","MANILLA AV","SPRINGFIELD","MA","1104",53723,42.12644917,-72.53410311,,63,37,"Some Transit","4 nearby routes: 4 bus, 0 rail, 0 other"
3994,584985,"F_375692_2872997",970,970,281,"Springfield","11th Hampden District",23200,124800,0,148000,5000.11206,2040,"36","MANILLA AV","SPRINGFIELD","MA","1104",53723,42.12698012,-72.53396061,,58,38,"Some Transit","5 nearby routes: 5 bus, 0 rail, 0 other"
3995,584998,"F_375608_2872943",970,970,281,"Springfield","11th Hampden District",23200,141700,0,164900,5000.249955,2640,"26","MANILLA AV","SPRINGFIELD","MA","1109",53723,42.12682915,-72.53426783,,58,38,"Some Transit","5 nearby routes: 5 bus, 0 rail, 0 other"
3998,585115,"F_375520_2872883",970,970,281,"Springfield","11th Hampden District",24100,123300,0,147400,6210.027906,1710,"16","MANILLA AV","SPRINGFIELD","MA","1104",53723,42.12666159,-72.53458952,,63,37,"Some Transit","4 nearby routes: 4 bus, 0 rail, 0 other"
